{"type":"FeatureCollection","features":[{"type":"Feature","geometry":{"type":"Point","coordinates":[-86.562,34.853]},"properties":{"col_id":2,"name":"Madison Co, Alabama","group":"Southern Appalachians","project":"North America","project_id":1,"source":"macrostrat"}},{"type":"Feature","geometry":{"type":"Point","coordinates":[-85.782,34.832]},"properties":{"col_id":3,"name":"Jackson County, Alabama","group":"Southern Appalachians","project":"North America","project_id":1,"source":"macrostrat"}},{"type":"Feature","geometry":{"type":"Point","coordinates":[-86.55,33.998]},"properties":{"col_id":4,"name":"Blount County, Alabama","group":"Southern Appalachians","project":"North America","project_id":1,"source":"macrostrat"}},{"type":"Feature","geometry":{"type":"Point","coordinates":[-86.079,34.354]},"properties":{"col_id":5,"name":"Dekalb & Western Etowah Counties, Alabama","group":"Southern Appalachians","project":"North America","project_id":1,"source":"macrostrat"}},{"type":"Feature","geometry":{"type":"Point","coordinates":[-85.599,34.209]},"properties":{"col_id":6,"name":"Western Valley & Ridge, Northern Segment, Alabama","group":"Southern Appalachians","project":"North America","project_id":1,"source":"macrostrat"}},{"type":"Feature","geometry":{"type":"Point","coordinates":[-86.156,33.717]},"properties":{"col_id":7,"name":"Eastern Valley and Ridge, Northern Segment, Alabama","group":"Southern Appalachians","project":"North America","project_id":1,"source":"macrostrat"}},{"type":"Feature","geometry":{"type":"Point","coordinates":[-86.786,33.662]},"properties":{"col_id":8,"name":"Western Valley & Ridge, Southern Segment, Alabama","group":"Southern Appalachians","project":"North America","project_id":1,"source":"macrostrat"}},{"type":"Feature","geometry":{"type":"Point","coordinates":[-87.304,33.165]},"properties":{"col_id":9,"name":"Eastern Valley & Ridge, Southern Segment, Alabama","group":"Southern Appalachians","project":"North America","project_id":1,"source":"macrostrat"}},{"type":"Feature","geometry":{"type":"Point","coordinates":[-85.3,34.725]},"properties":{"col_id":10,"name":"Northwestern Valley & Ridge & Plateau, Georgia","group":"Southern Appalachians","project":"North America","project_id":1,"source":"macrostrat"}},{"type":"Feature","geometry":{"type":"Point","coordinates":[-85.0,34.503]},"properties":{"col_id":11,"name":"Southeastern Valley & Ridge, Georgia","group":"Southern Appalachians","project":"North America","project_id":1,"source":"macrostrat"}},{"type":"Feature","geometry":{"type":"Point","coordinates":[-84.924,36.011]},"properties":{"col_id":12,"name":"Cumberland Plateau & Adjacent Areas, Tennessee","group":"Southern Appalachians","project":"North America","project_id":1,"source":"macrostrat"}},{"type":"Feature","geometry":{"type":"Point","coordinates":[-83.575,36.45]},"properties":{"col_id":13,"name":"Pine Mountain Overthrust & Adjacent Areas, Tennessee","group":"Southern Appalachians","project":"North America","project_id":1,"source":"macrostrat"}},{"type":"Feature","geometry":{"type":"Point","coordinates":[-82.483,36.308]},"properties":{"col_id":14,"name":"Northern Unaka Mountains & Adjacent Valley & Ridge, Tennessee","group":"Southern Appalachians","project":"North America","project_id":1,"source":"macrostrat"}},{"type":"Feature","geometry":{"type":"Point","coordinates":[-83.716,35.916]},"properties":{"col_id":15,"name":"Southern Unaka Mountains and Adjacent Valley & Ridge, Tennessee","group":"Southern Appalachians","project":"North America","project_id":1,"source":"macrostrat"}},{"type":"Feature","geometry":{"type":"Point","coordinates":[-83.066,36.333]},"properties":{"col_id":16,"name":"Valley & Ridge, Tennessee","group":"Southern Appalachians","project":"North America","project_id":1,"source":"macrostrat"}},{"type":"Feature","geometry":{"type":"Point","coordinates":[-82.828,39.397]},"properties":{"col_id":17,"name":"South-central, Ohio","group":"Southern Appalachians","project":"North America","project_id":1,"source":"macrostrat"}},{"type":"Feature","geometry":{"type":"Point","coordinates":[-83.05,38.5]},"properties":{"col_id":18,"name":"Northeastern Kentucky","group":"Southern Appalachians","project":"North America","project_id":1,"source":"macrostrat"}},{"type":"Feature","geometry":{"type":"Point","coordinates":[-83.001,37.579]},"properties":{"col_id":19,"name":"Eastern Kentucky","group":"Southern Appalachians","project":"North America","project_id":1,"source":"macrostrat"}},{"type":"Feature","geometry":{"type":"Point","coordinates":[-83.22,36.98]},"properties":{"col_id":20,"name":"Southeastern Kentucky: North of Pine Mtn","group":"Southern Appalachians","project":"North America","project_id":1,"source":"macrostrat"}},{"type":"Feature","geometry":{"type":"Point","coordinates":[-82.925,36.735]},"properties":{"col_id":21,"name":"Lee County, Virginia","group":"Southern Appalachians","project":"North America","project_id":1,"source":"macrostrat"}},{"type":"Feature","geometry":{"type":"Point","coordinates":[-96.434,36.583]},"properties":{"col_id":22,"name":"Northern Part Chautauqua Platform","group":"Texas-Oklahoma Tectonic Region","project":"North America","project_id":1,"source":"macrostrat"}},{"type":"Feature","geometry":{"type":"Point","coordinates":[-82.116,37.3]},"properties":{"col_id":23,"name":"Appalachian Plateau, Virginia","group":"Southern Appalachians","project":"North America","project_id":1,"source":"macrostrat"}},{"type":"Feature","geometry":{"type":"Point","coordinates":[-96.248,35.583]},"properties":{"col_id":24,"name":"Southern Part Chautauqua Platform","group":"Texas-Oklahoma Tectonic Region","project":"North America","project_id":1,"source":"macrostrat"}},{"type":"Feature","geometry":{"type":"Point","coordinates":[-82.356,36.778]},"properties":{"col_id":25,"name":"Scott and Russell Counties, Virginia","group":"Southern Appalachians","project":"North America","project_id":1,"source":"macrostrat"}},{"type":"Feature","geometry":{"type":"Point","coordinates":[-96.458,34.723]},"properties":{"col_id":26,"name":"Lehigh Basin Portion of Arkoma Basin","group":"Texas-Oklahoma Tectonic Region","project":"North America","project_id":1,"source":"macrostrat"}},{"type":"Feature","geometry":{"type":"Point","coordinates":[-81.944,36.817]},"properties":{"col_id":27,"name":"Washington & Smyth Counties, Virginia: West of Pulaski Fault","group":"Southern Appalachians","project":"North America","project_id":1,"source":"macrostrat"}},{"type":"Feature","geometry":{"type":"Point","coordinates":[-81.466,37.133]},"properties":{"col_id":28,"name":"Western Anticline Belt (southern half), Virginia","group":"Southern Appalachians","project":"North America","project_id":1,"source":"macrostrat"}},{"type":"Feature","geometry":{"type":"Point","coordinates":[-87.845,43.733]},"properties":{"col_id":31,"name":"Eastern Wisconsin","group":"Midwestern Basins and Arches","project":"North America","project_id":1,"source":"macrostrat"}},{"type":"Feature","geometry":{"type":"Point","coordinates":[-81.611,38.0]},"properties":{"col_id":32,"name":"Southern Coal Basin, West Virginia","group":"Northern Appalachians","project":"North America","project_id":1,"source":"macrostrat"}},{"type":"Feature","geometry":{"type":"Point","coordinates":[-96.152,43.267]},"properties":{"col_id":33,"name":"Sioux/Lyons Counties, Iowa","group":"Midcontinent","project":"North America","project_id":1,"source":"macrostrat"}},{"type":"Feature","geometry":{"type":"Point","coordinates":[-68.3,40.916]},"properties":{"col_id":34,"name":"Cost G1 Well Georges Bank Basin","group":"Atlantic Coastal Plain","project":"North America","project_id":1,"source":"macrostrat"}},{"type":"Feature","geometry":{"type":"Point","coordinates":[-114.061,33.591]},"properties":{"col_id":35,"name":"Plomosa and Dome Rock Mountains Area","group":"Southwest Mid-Continent","project":"North America","project_id":1,"source":"macrostrat"}},{"type":"Feature","geometry":{"type":"Point","coordinates":[-154.583,70.644]},"properties":{"col_id":36,"name":"Barrow - Drew Point","group":"Northern Alaska","project":"North America","project_id":1,"source":"macrostrat"}},{"type":"Feature","geometry":{"type":"Point","coordinates":[-81.231,37.018]},"properties":{"col_id":37,"name":"Wythe and Pulaski Counties, Virginia: West of Pulaski Fault","group":"Southern Appalachians","project":"North America","project_id":1,"source":"macrostrat"}},{"type":"Feature","geometry":{"type":"Point","coordinates":[-80.555,37.238]},"properties":{"col_id":38,"name":"Montgomery and Roanoke Counties, Virginia: West of Pulaski Fault","group":"Southern Appalachians","project":"North America","project_id":1,"source":"macrostrat"}},{"type":"Feature","geometry":{"type":"Point","coordinates":[-80.986,38.445]},"properties":{"col_id":39,"name":"Basin Center, West Virginia","group":"Northern Appalachians","project":"North America","project_id":1,"source":"macrostrat"}},{"type":"Feature","geometry":{"type":"Point","coordinates":[-80.608,37.741]},"properties":{"col_id":40,"name":"Southeast Valley & Ridge, West Virginia","group":"Northern Appalachians","project":"North America","project_id":1,"source":"macrostrat"}},{"type":"Feature","geometry":{"type":"Point","coordinates":[-79.772,38.092]},"properties":{"col_id":41,"name":"Highland to Craig County, Virginia","group":"Northern Appalachians","project":"North America","project_id":1,"source":"macrostrat"}},{"type":"Feature","geometry":{"type":"Point","coordinates":[-80.035,37.527]},"properties":{"col_id":42,"name":"Rockbridge & Botetourt Counties, Virginia - West of Pulaski Fault","group":"Northern Appalachians","project":"North America","project_id":1,"source":"macrostrat"}},{"type":"Feature","geometry":{"type":"Point","coordinates":[-79.158,38.438]},"properties":{"col_id":43,"name":"Rockingham & Augusta Counties, Virginia - West of North Mtn Fault","group":"Northern Appalachians","project":"North America","project_id":1,"source":"macrostrat"}},{"type":"Feature","geometry":{"type":"Point","coordinates":[-81.76,39.894]},"properties":{"col_id":44,"name":"Southeastern Ohio","group":"Northern Appalachians","project":"North America","project_id":1,"source":"macrostrat"}},{"type":"Feature","geometry":{"type":"Point","coordinates":[-80.961,39.343]},"properties":{"col_id":45,"name":"Dunkard Basin, West Virginia","group":"Northern Appalachians","project":"North America","project_id":1,"source":"macrostrat"}},{"type":"Feature","geometry":{"type":"Point","coordinates":[-80.075,39.141]},"properties":{"col_id":46,"name":"High Plateau, West Virginia","group":"Northern Appalachians","project":"North America","project_id":1,"source":"macrostrat"}},{"type":"Feature","geometry":{"type":"Point","coordinates":[-79.154,39.04]},"properties":{"col_id":47,"name":"Northeast Valley & Ridge, West Virginia","group":"Northern Appalachians","project":"North America","project_id":1,"source":"macrostrat"}},{"type":"Feature","geometry":{"type":"Point","coordinates":[-111.665,32.252]},"properties":{"col_id":48,"name":"Southern Papago Reservation","group":"Southwest Mid-Continent","project":"North America","project_id":1,"source":"macrostrat"}},{"type":"Feature","geometry":{"type":"Point","coordinates":[-110.15,31.62]},"properties":{"col_id":49,"name":"Sonoita Area","group":"Southwest Mid-Continent","project":"North America","project_id":1,"source":"macrostrat"}},{"type":"Feature","geometry":{"type":"Point","coordinates":[-108.4,31.666]},"properties":{"col_id":50,"name":"Big Hatchet Mountain Area","group":"Southwest Mid-Continent","project":"North America","project_id":1,"source":"macrostrat"}},{"type":"Feature","geometry":{"type":"Point","coordinates":[-110.44,33.878]},"properties":{"col_id":51,"name":"Verde Valley","group":"Southwest Mid-Continent","project":"North America","project_id":1,"source":"macrostrat"}},{"type":"Feature","geometry":{"type":"Point","coordinates":[-108.258,32.483]},"properties":{"col_id":52,"name":"Lone Mountain Area","group":"Southwest Mid-Continent","project":"North America","project_id":1,"source":"macrostrat"}},{"type":"Feature","geometry":{"type":"Point","coordinates":[-107.5,33.075]},"properties":{"col_id":53,"name":"Black Range","group":"Southwest Mid-Continent","project":"North America","project_id":1,"source":"macrostrat"}},{"type":"Feature","geometry":{"type":"Point","coordinates":[-106.502,31.909]},"properties":{"col_id":54,"name":"Franklin Mountain Cristo Rey Area","group":"Southwest Mid-Continent","project":"North America","project_id":1,"source":"macrostrat"}},{"type":"Feature","geometry":{"type":"Point","coordinates":[-106.421,32.613]},"properties":{"col_id":55,"name":"Organ Mountain Southern San Andres Mountain","group":"Southwest Mid-Continent","project":"North America","project_id":1,"source":"macrostrat"}},{"type":"Feature","geometry":{"type":"Point","coordinates":[-78.504,39.083]},"properties":{"col_id":56,"name":"Northeast Valley & Ridge, Virginia - West of North Mtn Fault","group":"Northern Appalachians","project":"North America","project_id":1,"source":"macrostrat"}},{"type":"Feature","geometry":{"type":"Point","coordinates":[-105.046,31.377]},"properties":{"col_id":57,"name":"Sierra Diablo","group":"Southwest Mid-Continent","project":"North America","project_id":1,"source":"macrostrat"}},{"type":"Feature","geometry":{"type":"Point","coordinates":[-103.366,29.585]},"properties":{"col_id":58,"name":"Marathon - Big Bend Region","group":"Southwest Mid-Continent","project":"North America","project_id":1,"source":"macrostrat"}},{"type":"Feature","geometry":{"type":"Point","coordinates":[-103.002,30.452]},"properties":{"col_id":59,"name":"Glass Mountain Marathon Region","group":"Southwest Mid-Continent","project":"North America","project_id":1,"source":"macrostrat"}},{"type":"Feature","geometry":{"type":"Point","coordinates":[-108.395,34.216]},"properties":{"col_id":60,"name":"Quemado Fence Lake Area","group":"Southwest Mid-Continent","project":"North America","project_id":1,"source":"macrostrat"}},{"type":"Feature","geometry":{"type":"Point","coordinates":[-107.275,34.153]},"properties":{"col_id":61,"name":"Puetecito-landron Mountain Area","group":"Southwest Mid-Continent","project":"North America","project_id":1,"source":"macrostrat"}},{"type":"Feature","geometry":{"type":"Point","coordinates":[-106.802,33.808]},"properties":{"col_id":62,"name":"Carthage-Joyita Hill Area","group":"Southwest Mid-Continent","project":"North America","project_id":1,"source":"macrostrat"}},{"type":"Feature","geometry":{"type":"Point","coordinates":[-106.642,33.235]},"properties":{"col_id":63,"name":"Northern San Andres Mountains","group":"Southwest Mid-Continent","project":"North America","project_id":1,"source":"macrostrat"}},{"type":"Feature","geometry":{"type":"Point","coordinates":[-105.607,33.051]},"properties":{"col_id":64,"name":"Sacramento Mountains","group":"Southwest Mid-Continent","project":"North America","project_id":1,"source":"macrostrat"}},{"type":"Feature","geometry":{"type":"Point","coordinates":[-104.178,32.355]},"properties":{"col_id":65,"name":"Carlsbad and Northern Shelf","group":"Southwest Mid-Continent","project":"North America","project_id":1,"source":"macrostrat"}},{"type":"Feature","geometry":{"type":"Point","coordinates":[-103.153,31.472]},"properties":{"col_id":66,"name":"Delaware Basin","group":"Southwest Mid-Continent","project":"North America","project_id":1,"source":"macrostrat"}},{"type":"Feature","geometry":{"type":"Point","coordinates":[-102.27,32.352]},"properties":{"col_id":67,"name":"Central Basin Platform","group":"Southwest Mid-Continent","project":"North America","project_id":1,"source":"macrostrat"}},{"type":"Feature","geometry":{"type":"Point","coordinates":[-101.775,31.706]},"properties":{"col_id":68,"name":"Midland Basin","group":"Southwest Mid-Continent","project":"North America","project_id":1,"source":"macrostrat"}},{"type":"Feature","geometry":{"type":"Point","coordinates":[-100.616,31.908]},"properties":{"col_id":69,"name":"Eastern Shelf","group":"Southwest Mid-Continent","project":"North America","project_id":1,"source":"macrostrat"}},{"type":"Feature","geometry":{"type":"Point","coordinates":[-104.016,33.779]},"properties":{"col_id":70,"name":"Northwest Shelf","group":"Southwest Mid-Continent","project":"North America","project_id":1,"source":"macrostrat"}},{"type":"Feature","geometry":{"type":"Point","coordinates":[-101.833,34.433]},"properties":{"col_id":71,"name":"Western Palo Duro Basin","group":"Southwest Mid-Continent","project":"North America","project_id":1,"source":"macrostrat"}},{"type":"Feature","geometry":{"type":"Point","coordinates":[-99.983,33.733]},"properties":{"col_id":72,"name":"Eastern Palo Duro Basin","group":"Southwest Mid-Continent","project":"North America","project_id":1,"source":"macrostrat"}},{"type":"Feature","geometry":{"type":"Point","coordinates":[-101.578,35.5]},"properties":{"col_id":73,"name":"Amarillo Arch","group":"Southwest Mid-Continent","project":"North America","project_id":1,"source":"macrostrat"}},{"type":"Feature","geometry":{"type":"Point","coordinates":[-99.251,35.936]},"properties":{"col_id":74,"name":"Western Oklahoma","group":"Southwest Mid-Continent","project":"North America","project_id":1,"source":"macrostrat"}},{"type":"Feature","geometry":{"type":"Point","coordinates":[-100.886,36.38]},"properties":{"col_id":75,"name":"Texas Panhandle","group":"Southwest Mid-Continent","project":"North America","project_id":1,"source":"macrostrat"}},{"type":"Feature","geometry":{"type":"Point","coordinates":[-101.283,37.583]},"properties":{"col_id":76,"name":"Hugoton Embayment-kansas","group":"Southwest Mid-Continent","project":"North America","project_id":1,"source":"macrostrat"}},{"type":"Feature","geometry":{"type":"Point","coordinates":[-102.566,38.283]},"properties":{"col_id":77,"name":"Las Animas Arch-colorado","group":"Southwest Mid-Continent","project":"North America","project_id":1,"source":"macrostrat"}},{"type":"Feature","geometry":{"type":"Point","coordinates":[-101.175,39.476]},"properties":{"col_id":78,"name":"Las Animas Arch-kansas","group":"Southwest Mid-Continent","project":"North America","project_id":1,"source":"macrostrat"}},{"type":"Feature","geometry":{"type":"Point","coordinates":[-95.85,42.738]},"properties":{"col_id":79,"name":"Plymouth/Cheeroke Counties, Iowa","group":"Midcontinent","project":"North America","project_id":1,"source":"macrostrat"}},{"type":"Feature","geometry":{"type":"Point","coordinates":[-94.241,42.511]},"properties":{"col_id":80,"name":"Webster County, Iowa","group":"Midcontinent","project":"North America","project_id":1,"source":"macrostrat"}},{"type":"Feature","geometry":{"type":"Point","coordinates":[-92.798,42.751]},"properties":{"col_id":81,"name":"Butler County, Iowa","group":"Midcontinent","project":"North America","project_id":1,"source":"macrostrat"}},{"type":"Feature","geometry":{"type":"Point","coordinates":[-91.828,42.07]},"properties":{"col_id":82,"name":"Linn/Benton Counties, Iowa","group":"Midcontinent","project":"North America","project_id":1,"source":"macrostrat"}},{"type":"Feature","geometry":{"type":"Point","coordinates":[-91.17,40.966]},"properties":{"col_id":83,"name":"Des Moines County, Iowa","group":"Midcontinent","project":"North America","project_id":1,"source":"macrostrat"}},{"type":"Feature","geometry":{"type":"Point","coordinates":[-102.354,42.551]},"properties":{"col_id":84,"name":"Sheridan County, Nebraska","group":"Midcontinent","project":"North America","project_id":1,"source":"macrostrat"}},{"type":"Feature","geometry":{"type":"Point","coordinates":[-99.451,42.402]},"properties":{"col_id":85,"name":"Rock County, Nebraska","group":"Midcontinent","project":"North America","project_id":1,"source":"macrostrat"}},{"type":"Feature","geometry":{"type":"Point","coordinates":[-97.333,41.95]},"properties":{"col_id":86,"name":"Stanton County, Nebraska","group":"Midcontinent","project":"North America","project_id":1,"source":"macrostrat"}},{"type":"Feature","geometry":{"type":"Point","coordinates":[-96.095,41.123]},"properties":{"col_id":87,"name":"Sarpy County, Nebraska","group":"Midcontinent","project":"North America","project_id":1,"source":"macrostrat"}},{"type":"Feature","geometry":{"type":"Point","coordinates":[-95.626,41.582]},"properties":{"col_id":88,"name":"Harrison/Pottawattomie Counties, Iowa","group":"Midcontinent","project":"North America","project_id":1,"source":"macrostrat"}},{"type":"Feature","geometry":{"type":"Point","coordinates":[-94.031,41.543]},"properties":{"col_id":89,"name":"Dallas/Madison Counties, Iowa","group":"Midcontinent","project":"North America","project_id":1,"source":"macrostrat"}},{"type":"Feature","geometry":{"type":"Point","coordinates":[-92.913,40.721]},"properties":{"col_id":90,"name":"Appanoose County, Iowa","group":"Midcontinent","project":"North America","project_id":1,"source":"macrostrat"}},{"type":"Feature","geometry":{"type":"Point","coordinates":[-91.625,39.828]},"properties":{"col_id":91,"name":"Marion County, Missouri","group":"Midcontinent","project":"North America","project_id":1,"source":"macrostrat"}},{"type":"Feature","geometry":{"type":"Point","coordinates":[-100.423,40.231]},"properties":{"col_id":92,"name":"Redwillow County, Nebraska","group":"Midcontinent","project":"North America","project_id":1,"source":"macrostrat"}},{"type":"Feature","geometry":{"type":"Point","coordinates":[-99.595,38.928]},"properties":{"col_id":93,"name":"Ellis/trego Counties, Kansas","group":"Midcontinent","project":"North America","project_id":1,"source":"macrostrat"}},{"type":"Feature","geometry":{"type":"Point","coordinates":[-151.269,70.26]},"properties":{"col_id":94,"name":"Colville Delta","group":"Northern Alaska","project":"North America","project_id":1,"source":"macrostrat"}},{"type":"Feature","geometry":{"type":"Point","coordinates":[-149.276,70.343]},"properties":{"col_id":95,"name":"West Sak","group":"Northern Alaska","project":"North America","project_id":1,"source":"macrostrat"}},{"type":"Feature","geometry":{"type":"Point","coordinates":[-147.653,69.889]},"properties":{"col_id":96,"name":"Prudhoe","group":"Northern Alaska","project":"North America","project_id":1,"source":"macrostrat"}},{"type":"Feature","geometry":{"type":"Point","coordinates":[-145.668,70.015]},"properties":{"col_id":97,"name":"Canning River Delta","group":"Northern Alaska","project":"North America","project_id":1,"source":"macrostrat"}},{"type":"Feature","geometry":{"type":"Point","coordinates":[-143.479,69.793]},"properties":{"col_id":98,"name":"Northern Arctic National Wildlife Refuge","group":"Northern Alaska","project":"North America","project_id":1,"source":"macrostrat"}},{"type":"Feature","geometry":{"type":"Point","coordinates":[-98.249,39.448]},"properties":{"col_id":99,"name":"Mitchell County, Kansas","group":"Midcontinent","project":"North America","project_id":1,"source":"macrostrat"}},{"type":"Feature","geometry":{"type":"Point","coordinates":[-96.6,39.36]},"properties":{"col_id":100,"name":"Pottawotomie County, Kansas","group":"Midcontinent","project":"North America","project_id":1,"source":"macrostrat"}},{"type":"Feature","geometry":{"type":"Point","coordinates":[-95.773,39.446]},"properties":{"col_id":101,"name":"Jackson County, Kansas","group":"Midcontinent","project":"North America","project_id":1,"source":"macrostrat"}},{"type":"Feature","geometry":{"type":"Point","coordinates":[-96.393,40.212]},"properties":{"col_id":102,"name":"Pawnee County, Nebraska","group":"Midcontinent","project":"North America","project_id":1,"source":"macrostrat"}},{"type":"Feature","geometry":{"type":"Point","coordinates":[-95.408,40.433]},"properties":{"col_id":103,"name":"Atchinson County, Missouri","group":"Midcontinent","project":"North America","project_id":1,"source":"macrostrat"}},{"type":"Feature","geometry":{"type":"Point","coordinates":[-92.298,38.913]},"properties":{"col_id":104,"name":"Boone County, Missouri","group":"Midcontinent","project":"North America","project_id":1,"source":"macrostrat"}},{"type":"Feature","geometry":{"type":"Point","coordinates":[-89.866,37.719]},"properties":{"col_id":105,"name":"Perry County, Missouri","group":"Midcontinent","project":"North America","project_id":1,"source":"macrostrat"}},{"type":"Feature","geometry":{"type":"Point","coordinates":[-98.707,38.2]},"properties":{"col_id":106,"name":"Stafford County, Kansas","group":"Midcontinent","project":"North America","project_id":1,"source":"macrostrat"}},{"type":"Feature","geometry":{"type":"Point","coordinates":[-98.231,37.436]},"properties":{"col_id":107,"name":"Kingman County, Kansas","group":"Midcontinent","project":"North America","project_id":1,"source":"macrostrat"}},{"type":"Feature","geometry":{"type":"Point","coordinates":[-96.751,37.766]},"properties":{"col_id":108,"name":"Butler County, Kansas","group":"Midcontinent","project":"North America","project_id":1,"source":"macrostrat"}},{"type":"Feature","geometry":{"type":"Point","coordinates":[-94.478,37.97]},"properties":{"col_id":109,"name":"Vernon County, Missouri","group":"Midcontinent","project":"North America","project_id":1,"source":"macrostrat"}},{"type":"Feature","geometry":{"type":"Point","coordinates":[-93.857,36.886]},"properties":{"col_id":110,"name":"Barry County, Missouri","group":"Midcontinent","project":"North America","project_id":1,"source":"macrostrat"}},{"type":"Feature","geometry":{"type":"Point","coordinates":[-67.5,40.833]},"properties":{"col_id":111,"name":"Cost G2 Well Georges Bank Basin","group":"Atlantic Coastal Plain","project":"North America","project_id":1,"source":"macrostrat"}},{"type":"Feature","geometry":{"type":"Point","coordinates":[-77.308,38.766]},"properties":{"col_id":112,"name":"Northern Coastal Plain","group":"Atlantic Coastal Plain","project":"North America","project_id":1,"source":"macrostrat"}},{"type":"Feature","geometry":{"type":"Point","coordinates":[-76.633,37.991]},"properties":{"col_id":113,"name":"Northern Neck Peninsula","group":"Atlantic Coastal Plain","project":"North America","project_id":1,"source":"macrostrat"}},{"type":"Feature","geometry":{"type":"Point","coordinates":[-74.217,40.419]},"properties":{"col_id":114,"name":"Raritan Bay","group":"Atlantic Coastal Plain","project":"North America","project_id":1,"source":"macrostrat"}},{"type":"Feature","geometry":{"type":"Point","coordinates":[-74.095,40.082]},"properties":{"col_id":115,"name":"Brick Township","group":"Atlantic Coastal Plain","project":"North America","project_id":1,"source":"macrostrat"}},{"type":"Feature","geometry":{"type":"Point","coordinates":[-77.183,38.0]},"properties":{"col_id":116,"name":"Middle Peninsula","group":"Atlantic Coastal Plain","project":"North America","project_id":1,"source":"macrostrat"}},{"type":"Feature","geometry":{"type":"Point","coordinates":[-77.0,37.125]},"properties":{"col_id":117,"name":"South Bank of James River","group":"Atlantic Coastal Plain","project":"North America","project_id":1,"source":"macrostrat"}},{"type":"Feature","geometry":{"type":"Point","coordinates":[-76.966,37.466]},"properties":{"col_id":118,"name":"York-james Peninsula","group":"Atlantic Coastal Plain","project":"North America","project_id":1,"source":"macrostrat"}},{"type":"Feature","geometry":{"type":"Point","coordinates":[-77.312,36.866]},"properties":{"col_id":119,"name":"Southwestern Coastal Plain","group":"Atlantic Coastal Plain","project":"North America","project_id":1,"source":"macrostrat"}},{"type":"Feature","geometry":{"type":"Point","coordinates":[-76.233,36.716]},"properties":{"col_id":120,"name":"Southeastern Coastal Plain","group":"Atlantic Coastal Plain","project":"North America","project_id":1,"source":"macrostrat"}},{"type":"Feature","geometry":{"type":"Point","coordinates":[-75.533,37.81]},"properties":{"col_id":121,"name":"Eastern Shore","group":"Atlantic Coastal Plain","project":"North America","project_id":1,"source":"macrostrat"}},{"type":"Feature","geometry":{"type":"Point","coordinates":[-77.14,36.325]},"properties":{"col_id":122,"name":"Murfreesboro","group":"Atlantic Coastal Plain","project":"North America","project_id":1,"source":"macrostrat"}},{"type":"Feature","geometry":{"type":"Point","coordinates":[-76.236,36.408]},"properties":{"col_id":123,"name":"Great Dismal Swamp","group":"Atlantic Coastal Plain","project":"North America","project_id":1,"source":"macrostrat"}},{"type":"Feature","geometry":{"type":"Point","coordinates":[-76.069,35.984]},"properties":{"col_id":124,"name":"Albemarle Sound-Alligator River","group":"Atlantic Coastal Plain","project":"North America","project_id":1,"source":"macrostrat"}},{"type":"Feature","geometry":{"type":"Point","coordinates":[-76.538,35.72]},"properties":{"col_id":125,"name":"Pungo Lake","group":"Atlantic Coastal Plain","project":"North America","project_id":1,"source":"macrostrat"}},{"type":"Feature","geometry":{"type":"Point","coordinates":[-77.559,35.607]},"properties":{"col_id":126,"name":"Farmville","group":"Atlantic Coastal Plain","project":"North America","project_id":1,"source":"macrostrat"}},{"type":"Feature","geometry":{"type":"Point","coordinates":[-77.933,35.283]},"properties":{"col_id":127,"name":"Inner Coastal Plain","group":"Atlantic Coastal Plain","project":"North America","project_id":1,"source":"macrostrat"}},{"type":"Feature","geometry":{"type":"Point","coordinates":[-76.535,34.608]},"properties":{"col_id":128,"name":"Cape Lookout","group":"Atlantic Coastal Plain","project":"North America","project_id":1,"source":"macrostrat"}},{"type":"Feature","geometry":{"type":"Point","coordinates":[-74.68,40.139]},"properties":{"col_id":129,"name":"Trenton-columbus-new Egypt","group":"Atlantic Coastal Plain","project":"North America","project_id":1,"source":"macrostrat"}},{"type":"Feature","geometry":{"type":"Point","coordinates":[-74.084,39.887]},"properties":{"col_id":130,"name":"Island Beach","group":"Atlantic Coastal Plain","project":"North America","project_id":1,"source":"macrostrat"}},{"type":"Feature","geometry":{"type":"Point","coordinates":[-75.224,39.666]},"properties":{"col_id":131,"name":"Gloucester County-Salem County","group":"Atlantic Coastal Plain","project":"North America","project_id":1,"source":"macrostrat"}},{"type":"Feature","geometry":{"type":"Point","coordinates":[-74.733,39.212]},"properties":{"col_id":132,"name":"Cape May","group":"Atlantic Coastal Plain","project":"North America","project_id":1,"source":"macrostrat"}},{"type":"Feature","geometry":{"type":"Point","coordinates":[-75.65,39.7]},"properties":{"col_id":133,"name":"Chesapeake and Delaware Canal","group":"Atlantic Coastal Plain","project":"North America","project_id":1,"source":"macrostrat"}},{"type":"Feature","geometry":{"type":"Point","coordinates":[-75.641,39.445]},"properties":{"col_id":134,"name":"Odessa","group":"Atlantic Coastal Plain","project":"North America","project_id":1,"source":"macrostrat"}},{"type":"Feature","geometry":{"type":"Point","coordinates":[-75.533,39.35]},"properties":{"col_id":135,"name":"Deakyneville","group":"Atlantic Coastal Plain","project":"North America","project_id":1,"source":"macrostrat"}},{"type":"Feature","geometry":{"type":"Point","coordinates":[-75.529,39.134]},"properties":{"col_id":136,"name":"Dover","group":"Atlantic Coastal Plain","project":"North America","project_id":1,"source":"macrostrat"}},{"type":"Feature","geometry":{"type":"Point","coordinates":[-75.591,38.805]},"properties":{"col_id":137,"name":"Greenwood","group":"Atlantic Coastal Plain","project":"North America","project_id":1,"source":"macrostrat"}},{"type":"Feature","geometry":{"type":"Point","coordinates":[-75.076,38.53]},"properties":{"col_id":138,"name":"Atlantic Coast","group":"Atlantic Coastal Plain","project":"North America","project_id":1,"source":"macrostrat"}},{"type":"Feature","geometry":{"type":"Point","coordinates":[-73.748,38.493]},"properties":{"col_id":139,"name":"Offshore Mid-Atlantic","group":"Atlantic Coastal Plain","project":"North America","project_id":1,"source":"macrostrat"}},{"type":"Feature","geometry":{"type":"Point","coordinates":[-76.506,39.114]},"properties":{"col_id":140,"name":"Upper Chesapeake Bay","group":"Atlantic Coastal Plain","project":"North America","project_id":1,"source":"macrostrat"}},{"type":"Feature","geometry":{"type":"Point","coordinates":[-76.729,38.45]},"properties":{"col_id":141,"name":"Potomac Estuary","group":"Atlantic Coastal Plain","project":"North America","project_id":1,"source":"macrostrat"}},{"type":"Feature","geometry":{"type":"Point","coordinates":[-75.316,38.3]},"properties":{"col_id":142,"name":"Atlantic Coast","group":"Atlantic Coastal Plain","project":"North America","project_id":1,"source":"macrostrat"}},{"type":"Feature","geometry":{"type":"Point","coordinates":[-77.563,34.43]},"properties":{"col_id":143,"name":"Surf City","group":"Atlantic Coastal Plain","project":"North America","project_id":1,"source":"macrostrat"}},{"type":"Feature","geometry":{"type":"Point","coordinates":[-79.512,34.189]},"properties":{"col_id":144,"name":"Pedee","group":"Atlantic Coastal Plain","project":"North America","project_id":1,"source":"macrostrat"}},{"type":"Feature","geometry":{"type":"Point","coordinates":[-80.795,33.901]},"properties":{"col_id":145,"name":"Congaree","group":"Atlantic Coastal Plain","project":"North America","project_id":1,"source":"macrostrat"}},{"type":"Feature","geometry":{"type":"Point","coordinates":[-79.872,32.905]},"properties":{"col_id":146,"name":"Lower Santee-Edisto","group":"Atlantic Coastal Plain","project":"North America","project_id":1,"source":"macrostrat"}},{"type":"Feature","geometry":{"type":"Point","coordinates":[-81.509,33.492]},"properties":{"col_id":147,"name":"Aiken","group":"Atlantic Coastal Plain","project":"North America","project_id":1,"source":"macrostrat"}},{"type":"Feature","geometry":{"type":"Point","coordinates":[-94.951,35.078]},"properties":{"col_id":148,"name":"Mcalester Basin Portion of Arkoma Basin","group":"Texas-Oklahoma Tectonic Region","project":"North America","project_id":1,"source":"macrostrat"}},{"type":"Feature","geometry":{"type":"Point","coordinates":[-159.802,69.847]},"properties":{"col_id":149,"name":"Northwestern Foothills and Arctic Slope Subsurface","group":"Northern Alaska","project":"North America","project_id":1,"source":"macrostrat"}},{"type":"Feature","geometry":{"type":"Point","coordinates":[-153.516,68.973]},"properties":{"col_id":150,"name":"Northeastern Foothills and Phillip Smith Mountains Quadrangle","group":"Northern Alaska","project":"North America","project_id":1,"source":"macrostrat"}},{"type":"Feature","geometry":{"type":"Point","coordinates":[-148.905,68.887]},"properties":{"col_id":151,"name":"North Central Foothills and Subsurface","group":"Northern Alaska","project":"North America","project_id":1,"source":"macrostrat"}},{"type":"Feature","geometry":{"type":"Point","coordinates":[-142.446,69.046]},"properties":{"col_id":152,"name":"Romanzof - British Mountains","group":"Northern Alaska","project":"North America","project_id":1,"source":"macrostrat"}},{"type":"Feature","geometry":{"type":"Point","coordinates":[-159.956,68.794]},"properties":{"col_id":153,"name":"Nuka Ridge Allochthon","group":"Northern Alaska","project":"North America","project_id":1,"source":"macrostrat"}},{"type":"Feature","geometry":{"type":"Point","coordinates":[-156.7,68.374]},"properties":{"col_id":154,"name":"Ipnavik Allochthon","group":"Northern Alaska","project":"North America","project_id":1,"source":"macrostrat"}},{"type":"Feature","geometry":{"type":"Point","coordinates":[-162.729,68.209]},"properties":{"col_id":155,"name":"Kelly River Allochthon","group":"Northern Alaska","project":"North America","project_id":1,"source":"macrostrat"}},{"type":"Feature","geometry":{"type":"Point","coordinates":[-79.25,39.561]},"properties":{"col_id":156,"name":"Garrett County, Maryland","group":"Northern Appalachians","project":"North America","project_id":1,"source":"macrostrat"}},{"type":"Feature","geometry":{"type":"Point","coordinates":[-92.895,35.525]},"properties":{"col_id":157,"name":"Arkansas Basin Portion of Arkoma Basin","group":"Texas-Oklahoma Tectonic Region","project":"North America","project_id":1,"source":"macrostrat"}},{"type":"Feature","geometry":{"type":"Point","coordinates":[-97.495,34.261]},"properties":{"col_id":158,"name":"Central Southern Oklahoma and Southwestern Oklahoma, Southern Oklahoma Fold","group":"Texas-Oklahoma Tectonic Region","project":"North America","project_id":1,"source":"macrostrat"}},{"type":"Feature","geometry":{"type":"Point","coordinates":[-96.971,33.45]},"properties":{"col_id":159,"name":"Cooke and Grayson Counties, Texas, Southern Oklahoma Folded Belt","group":"Texas-Oklahoma Tectonic Region","project":"North America","project_id":1,"source":"macrostrat"}},{"type":"Feature","geometry":{"type":"Point","coordinates":[-99.445,32.623]},"properties":{"col_id":160,"name":"Bend Arch","group":"Texas-Oklahoma Tectonic Region","project":"North America","project_id":1,"source":"macrostrat"}},{"type":"Feature","geometry":{"type":"Point","coordinates":[-98.07,33.363]},"properties":{"col_id":161,"name":"Fort Worth Basin","group":"Texas-Oklahoma Tectonic Region","project":"North America","project_id":1,"source":"macrostrat"}},{"type":"Feature","geometry":{"type":"Point","coordinates":[-98.366,32.033]},"properties":{"col_id":162,"name":"Strawn Basin","group":"Texas-Oklahoma Tectonic Region","project":"North America","project_id":1,"source":"macrostrat"}},{"type":"Feature","geometry":{"type":"Point","coordinates":[-98.741,31.133]},"properties":{"col_id":163,"name":"Llano Uplift","group":"Texas-Oklahoma Tectonic Region","project":"North America","project_id":1,"source":"macrostrat"}},{"type":"Feature","geometry":{"type":"Point","coordinates":[-99.416,30.3]},"properties":{"col_id":164,"name":"Kerr Basin","group":"Texas-Oklahoma Tectonic Region","project":"North America","project_id":1,"source":"macrostrat"}},{"type":"Feature","geometry":{"type":"Point","coordinates":[-93.383,34.266]},"properties":{"col_id":165,"name":"Arkansas and Louisiana Portion of Ouachita Tectonic Belt","group":"Texas-Oklahoma Tectonic Region","project":"North America","project_id":1,"source":"macrostrat"}},{"type":"Feature","geometry":{"type":"Point","coordinates":[-95.458,34.333]},"properties":{"col_id":166,"name":"Oklahoma Portion of Ouachita Tectonic Belt","group":"Texas-Oklahoma Tectonic Region","project":"North America","project_id":1,"source":"macrostrat"}},{"type":"Feature","geometry":{"type":"Point","coordinates":[-97.116,31.85]},"properties":{"col_id":167,"name":"Waco Uplift Portion of Ouachita Tectonic Belt","group":"Texas-Oklahoma Tectonic Region","project":"North America","project_id":1,"source":"macrostrat"}},{"type":"Feature","geometry":{"type":"Point","coordinates":[-100.378,29.658]},"properties":{"col_id":168,"name":"Devils River Uplift Portion of Ouachita Tectonic Belt","group":"Texas-Oklahoma Tectonic Region","project":"North America","project_id":1,"source":"macrostrat"}},{"type":"Feature","geometry":{"type":"Point","coordinates":[-88.541,34.633]},"properties":{"col_id":169,"name":"Black Warrior Basin Prentiss County, Mississippi","group":"Texas-Oklahoma Tectonic Region","project":"North America","project_id":1,"source":"macrostrat"}},{"type":"Feature","geometry":{"type":"Point","coordinates":[-88.875,33.445]},"properties":{"col_id":170,"name":"Black Warrior Basin Oktibbeha County, Mississippi","group":"Texas-Oklahoma Tectonic Region","project":"North America","project_id":1,"source":"macrostrat"}},{"type":"Feature","geometry":{"type":"Point","coordinates":[-87.02,34.23]},"properties":{"col_id":171,"name":"Black Warrior Basin Cullman County, Alabama","group":"Texas-Oklahoma Tectonic Region","project":"North America","project_id":1,"source":"macrostrat"}},{"type":"Feature","geometry":{"type":"Point","coordinates":[-102.758,43.516]},"properties":{"col_id":172,"name":"Jackson County (formerly Washabaugh County), South Dakota","group":"Northern Mid-Continent","project":"North America","project_id":1,"source":"macrostrat"}},{"type":"Feature","geometry":{"type":"Point","coordinates":[-99.176,43.659]},"properties":{"col_id":173,"name":"Brule County, South Dakota","group":"Northern Mid-Continent","project":"North America","project_id":1,"source":"macrostrat"}},{"type":"Feature","geometry":{"type":"Point","coordinates":[-98.178,45.575]},"properties":{"col_id":174,"name":"Brown County, South Dakota","group":"Northern Mid-Continent","project":"North America","project_id":1,"source":"macrostrat"}},{"type":"Feature","geometry":{"type":"Point","coordinates":[-96.841,48.83]},"properties":{"col_id":175,"name":"Kittson County, Minnesota","group":"Northern Mid-Continent","project":"North America","project_id":1,"source":"macrostrat"}},{"type":"Feature","geometry":{"type":"Point","coordinates":[-96.716,42.916]},"properties":{"col_id":176,"name":"Union County, South Dakota","group":"Northern Mid-Continent","project":"North America","project_id":1,"source":"macrostrat"}},{"type":"Feature","geometry":{"type":"Point","coordinates":[-96.646,43.69]},"properties":{"col_id":177,"name":"Minnehaha County, South Dakota","group":"Northern Mid-Continent","project":"North America","project_id":1,"source":"macrostrat"}},{"type":"Feature","geometry":{"type":"Point","coordinates":[-95.423,44.767]},"properties":{"col_id":178,"name":"Minnesota River Valley, Big Stone to Nicollet Counties, Minnesota","group":"Northern Mid-Continent","project":"North America","project_id":1,"source":"macrostrat"}},{"type":"Feature","geometry":{"type":"Point","coordinates":[-94.377,45.616]},"properties":{"col_id":179,"name":"Stearns County, Minnesota","group":"Northern Mid-Continent","project":"North America","project_id":1,"source":"macrostrat"}},{"type":"Feature","geometry":{"type":"Point","coordinates":[-94.091,46.633]},"properties":{"col_id":180,"name":"Crow Wing County, Minnesota","group":"Northern Mid-Continent","project":"North America","project_id":1,"source":"macrostrat"}},{"type":"Feature","geometry":{"type":"Point","coordinates":[-93.1,48.483]},"properties":{"col_id":181,"name":"Rainy Lake District, Koochiching County, Minnesota","group":"Northern Mid-Continent","project":"North America","project_id":1,"source":"macrostrat"}},{"type":"Feature","geometry":{"type":"Point","coordinates":[-91.716,47.883]},"properties":{"col_id":182,"name":"West Vermillion District, St. Louis - Lake Counties, Minnesota","group":"Northern Mid-Continent","project":"North America","project_id":1,"source":"macrostrat"}},{"type":"Feature","geometry":{"type":"Point","coordinates":[-90.428,47.845]},"properties":{"col_id":183,"name":"Cook County, Minnesota","group":"Northern Mid-Continent","project":"North America","project_id":1,"source":"macrostrat"}},{"type":"Feature","geometry":{"type":"Point","coordinates":[-92.678,46.415]},"properties":{"col_id":184,"name":"Pine - Carlton Counties, Minnesota","group":"Northern Mid-Continent","project":"North America","project_id":1,"source":"macrostrat"}},{"type":"Feature","geometry":{"type":"Point","coordinates":[-92.85,43.7]},"properties":{"col_id":185,"name":"Freeborn County, Minnesota","group":"Northern Mid-Continent","project":"North America","project_id":1,"source":"macrostrat"}},{"type":"Feature","geometry":{"type":"Point","coordinates":[-90.49,42.783]},"properties":{"col_id":186,"name":"Grant County, Wisconsin","group":"Northern Mid-Continent","project":"North America","project_id":1,"source":"macrostrat"}},{"type":"Feature","geometry":{"type":"Point","coordinates":[-89.756,43.233]},"properties":{"col_id":187,"name":"Baraboo District, Sauk County, Wisconsin","group":"Northern Mid-Continent","project":"North America","project_id":1,"source":"macrostrat"}},{"type":"Feature","geometry":{"type":"Point","coordinates":[-88.35,43.361]},"properties":{"col_id":188,"name":"Fond Du Lac County, Wisconsin","group":"Northern Mid-Continent","project":"North America","project_id":1,"source":"macrostrat"}},{"type":"Feature","geometry":{"type":"Point","coordinates":[-89.333,44.541]},"properties":{"col_id":189,"name":"Wausau-wisconsin Rapids Area, Marathon-Wood Counties, Wisconsin","group":"Northern Mid-Continent","project":"North America","project_id":1,"source":"macrostrat"}},{"type":"Feature","geometry":{"type":"Point","coordinates":[-90.986,45.566]},"properties":{"col_id":190,"name":"Flambeau and Rusk Counties, Wisconsin","group":"Northern Mid-Continent","project":"North America","project_id":1,"source":"macrostrat"}},{"type":"Feature","geometry":{"type":"Point","coordinates":[-90.74,46.408]},"properties":{"col_id":191,"name":"Davis Hill Area Bayfield County, Wisconsin","group":"Northern Mid-Continent","project":"North America","project_id":1,"source":"macrostrat"}},{"type":"Feature","geometry":{"type":"Point","coordinates":[-89.682,46.366]},"properties":{"col_id":192,"name":"Gogebic Range, Gogebic County, Michigan","group":"Northern Mid-Continent","project":"North America","project_id":1,"source":"macrostrat"}},{"type":"Feature","geometry":{"type":"Point","coordinates":[-89.039,46.207]},"properties":{"col_id":193,"name":"Watersmeet Area, Gogebic County, Michigan","group":"Northern Mid-Continent","project":"North America","project_id":1,"source":"macrostrat"}},{"type":"Feature","geometry":{"type":"Point","coordinates":[-88.191,46.347]},"properties":{"col_id":194,"name":"Amasa Oval, Iron County, Michigan","group":"Northern Mid-Continent","project":"North America","project_id":1,"source":"macrostrat"}},{"type":"Feature","geometry":{"type":"Point","coordinates":[-87.64,46.578]},"properties":{"col_id":195,"name":"Marquette District, Marquette County, Michigan","group":"Northern Mid-Continent","project":"North America","project_id":1,"source":"macrostrat"}},{"type":"Feature","geometry":{"type":"Point","coordinates":[-87.813,46.034]},"properties":{"col_id":196,"name":"Central Dickinson County, Michigan","group":"Northern Mid-Continent","project":"North America","project_id":1,"source":"macrostrat"}},{"type":"Feature","geometry":{"type":"Point","coordinates":[-88.224,45.213]},"properties":{"col_id":197,"name":"Mountain-amberg Area, Oconto-marinette Counties, Wisconsin","group":"Northern Mid-Continent","project":"North America","project_id":1,"source":"macrostrat"}},{"type":"Feature","geometry":{"type":"Point","coordinates":[-119.853,35.005]},"properties":{"col_id":198,"name":"Cuyama Valley","group":"Southern California","project":"North America","project_id":1,"source":"macrostrat"}},{"type":"Feature","geometry":{"type":"Point","coordinates":[-120.483,34.916]},"properties":{"col_id":199,"name":"Santa Maria","group":"Southern California","project":"North America","project_id":1,"source":"macrostrat"}},{"type":"Feature","geometry":{"type":"Point","coordinates":[-119.949,34.523]},"properties":{"col_id":200,"name":"Central Santa Ynez Mountains","group":"Southern California","project":"North America","project_id":1,"source":"macrostrat"}},{"type":"Feature","geometry":{"type":"Point","coordinates":[-118.958,34.416]},"properties":{"col_id":201,"name":"Fillmore","group":"Southern California","project":"North America","project_id":1,"source":"macrostrat"}},{"type":"Feature","geometry":{"type":"Point","coordinates":[-119.186,34.199]},"properties":{"col_id":202,"name":"Oxnard","group":"Southern California","project":"North America","project_id":1,"source":"macrostrat"}},{"type":"Feature","geometry":{"type":"Point","coordinates":[-118.656,34.668]},"properties":{"col_id":203,"name":"Ridge Basin","group":"Southern California","project":"North America","project_id":1,"source":"macrostrat"}},{"type":"Feature","geometry":{"type":"Point","coordinates":[-118.453,34.453]},"properties":{"col_id":204,"name":"Soledad Basin","group":"Southern California","project":"North America","project_id":1,"source":"macrostrat"}},{"type":"Feature","geometry":{"type":"Point","coordinates":[-118.525,34.303]},"properties":{"col_id":205,"name":"San Fernando - Santa Susana Mountains","group":"Southern California","project":"North America","project_id":1,"source":"macrostrat"}},{"type":"Feature","geometry":{"type":"Point","coordinates":[-118.714,34.082]},"properties":{"col_id":206,"name":"Central Santa Monica Mountains","group":"Southern California","project":"North America","project_id":1,"source":"macrostrat"}},{"type":"Feature","geometry":{"type":"Point","coordinates":[-118.332,33.755]},"properties":{"col_id":207,"name":"Palos Verdes Hills","group":"Southern California","project":"North America","project_id":1,"source":"macrostrat"}},{"type":"Feature","geometry":{"type":"Point","coordinates":[-117.684,33.817]},"properties":{"col_id":208,"name":"Northern Santa Ana Mountains","group":"Southern California","project":"North America","project_id":1,"source":"macrostrat"}},{"type":"Feature","geometry":{"type":"Point","coordinates":[-117.524,33.556]},"properties":{"col_id":209,"name":"Southern Santa Ana Mountains","group":"Southern California","project":"North America","project_id":1,"source":"macrostrat"}},{"type":"Feature","geometry":{"type":"Point","coordinates":[-159.508,68.272]},"properties":{"col_id":210,"name":"Picnic Creek Allochthon","group":"Northern Alaska","project":"North America","project_id":1,"source":"macrostrat"}},{"type":"Feature","geometry":{"type":"Point","coordinates":[-154.416,68.198]},"properties":{"col_id":211,"name":"Western Endicott Allochthon","group":"Northern Alaska","project":"North America","project_id":1,"source":"macrostrat"}},{"type":"Feature","geometry":{"type":"Point","coordinates":[-152.784,67.758]},"properties":{"col_id":212,"name":"Ekokpuk Syncline","group":"Northern Alaska","project":"North America","project_id":1,"source":"macrostrat"}},{"type":"Feature","geometry":{"type":"Point","coordinates":[-151.723,67.482]},"properties":{"col_id":213,"name":"Savioyuk Syncline","group":"Northern Alaska","project":"North America","project_id":1,"source":"macrostrat"}},{"type":"Feature","geometry":{"type":"Point","coordinates":[-117.283,33.166]},"properties":{"col_id":214,"name":"Northern San Diego Embayment","group":"Southern California","project":"North America","project_id":1,"source":"macrostrat"}},{"type":"Feature","geometry":{"type":"Point","coordinates":[-117.15,32.866]},"properties":{"col_id":215,"name":"Central San Diego Embayment","group":"Southern California","project":"North America","project_id":1,"source":"macrostrat"}},{"type":"Feature","geometry":{"type":"Point","coordinates":[-117.016,32.566]},"properties":{"col_id":216,"name":"Southern San Diego Embayment","group":"Southern California","project":"North America","project_id":1,"source":"macrostrat"}},{"type":"Feature","geometry":{"type":"Point","coordinates":[-116.741,33.128]},"properties":{"col_id":217,"name":"Peninsular Range","group":"Southern California","project":"North America","project_id":1,"source":"macrostrat"}},{"type":"Feature","geometry":{"type":"Point","coordinates":[-118.92,32.69]},"properties":{"col_id":218,"name":"Cortez/tanner Banks","group":"Southern California","project":"North America","project_id":1,"source":"macrostrat"}},{"type":"Feature","geometry":{"type":"Point","coordinates":[-117.531,33.911]},"properties":{"col_id":219,"name":"Corona","group":"Southern California","project":"North America","project_id":1,"source":"macrostrat"}},{"type":"Feature","geometry":{"type":"Point","coordinates":[-117.087,33.549]},"properties":{"col_id":220,"name":"Elsinor/temecula","group":"Southern California","project":"North America","project_id":1,"source":"macrostrat"}},{"type":"Feature","geometry":{"type":"Point","coordinates":[-116.5,33.637]},"properties":{"col_id":221,"name":"San Jacinto/Santa Rosa Mountains","group":"Southern California","project":"North America","project_id":1,"source":"macrostrat"}},{"type":"Feature","geometry":{"type":"Point","coordinates":[-115.85,33.57]},"properties":{"col_id":222,"name":"Mecca Hills/Orocopia Mountains","group":"Southern California","project":"North America","project_id":1,"source":"macrostrat"}},{"type":"Feature","geometry":{"type":"Point","coordinates":[-115.699,33.937]},"properties":{"col_id":223,"name":"Eagle/Pinto Mountains","group":"Southern California","project":"North America","project_id":1,"source":"macrostrat"}},{"type":"Feature","geometry":{"type":"Point","coordinates":[-117.472,34.337]},"properties":{"col_id":224,"name":"Cajon Pass","group":"Southern California","project":"North America","project_id":1,"source":"macrostrat"}},{"type":"Feature","geometry":{"type":"Point","coordinates":[-116.858,34.216]},"properties":{"col_id":225,"name":"Big Bear","group":"Southern California","project":"North America","project_id":1,"source":"macrostrat"}},{"type":"Feature","geometry":{"type":"Point","coordinates":[-117.328,34.512]},"properties":{"col_id":226,"name":"Victorville","group":"Southern California","project":"North America","project_id":1,"source":"macrostrat"}},{"type":"Feature","geometry":{"type":"Point","coordinates":[-117.47,34.98]},"properties":{"col_id":227,"name":"Kramer","group":"Southern California","project":"North America","project_id":1,"source":"macrostrat"}},{"type":"Feature","geometry":{"type":"Point","coordinates":[-116.92,34.89]},"properties":{"col_id":228,"name":"Barstow","group":"Southern California","project":"North America","project_id":1,"source":"macrostrat"}},{"type":"Feature","geometry":{"type":"Point","coordinates":[-116.389,34.8]},"properties":{"col_id":229,"name":"Hector","group":"Southern California","project":"North America","project_id":1,"source":"macrostrat"}},{"type":"Feature","geometry":{"type":"Point","coordinates":[-115.804,34.846]},"properties":{"col_id":230,"name":"Old Dad Mountains","group":"Southern California","project":"North America","project_id":1,"source":"macrostrat"}},{"type":"Feature","geometry":{"type":"Point","coordinates":[-115.333,35.433]},"properties":{"col_id":231,"name":"Mescal Range-Providence Mountains","group":"Southern California","project":"North America","project_id":1,"source":"macrostrat"}},{"type":"Feature","geometry":{"type":"Point","coordinates":[-124.349,40.557]},"properties":{"col_id":232,"name":"Centerville Beach","group":"Northern California","project":"North America","project_id":1,"source":"macrostrat"}},{"type":"Feature","geometry":{"type":"Point","coordinates":[-124.093,40.446]},"properties":{"col_id":233,"name":"Scotia Bluffs","group":"Northern California","project":"North America","project_id":1,"source":"macrostrat"}},{"type":"Feature","geometry":{"type":"Point","coordinates":[-121.943,41.245]},"properties":{"col_id":234,"name":"East of Mccloud River","group":"Northern California","project":"North America","project_id":1,"source":"macrostrat"}},{"type":"Feature","geometry":{"type":"Point","coordinates":[-122.554,41.108]},"properties":{"col_id":235,"name":"West of Mccloud River","group":"Northern California","project":"North America","project_id":1,"source":"macrostrat"}},{"type":"Feature","geometry":{"type":"Point","coordinates":[-122.635,41.723]},"properties":{"col_id":236,"name":"Yreka","group":"Northern California","project":"North America","project_id":1,"source":"macrostrat"}},{"type":"Feature","geometry":{"type":"Point","coordinates":[-123.519,40.804]},"properties":{"col_id":237,"name":"Central Metamorphic Belt","group":"Northern California","project":"North America","project_id":1,"source":"macrostrat"}},{"type":"Feature","geometry":{"type":"Point","coordinates":[-123.15,40.761]},"properties":{"col_id":238,"name":"North Fork","group":"Northern California","project":"North America","project_id":1,"source":"macrostrat"}},{"type":"Feature","geometry":{"type":"Point","coordinates":[-123.131,40.57]},"properties":{"col_id":239,"name":"Hayfork","group":"Northern California","project":"North America","project_id":1,"source":"macrostrat"}},{"type":"Feature","geometry":{"type":"Point","coordinates":[-122.85,40.748]},"properties":{"col_id":240,"name":"Rattlesnake","group":"Northern California","project":"North America","project_id":1,"source":"macrostrat"}},{"type":"Feature","geometry":{"type":"Point","coordinates":[-123.927,41.975]},"properties":{"col_id":241,"name":"Kalmiopsis","group":"Northern California","project":"North America","project_id":1,"source":"macrostrat"}},{"type":"Feature","geometry":{"type":"Point","coordinates":[-122.204,37.834]},"properties":{"col_id":242,"name":"Berkeley Hills","group":"Northern California","project":"North America","project_id":1,"source":"macrostrat"}},{"type":"Feature","geometry":{"type":"Point","coordinates":[-122.317,37.976]},"properties":{"col_id":243,"name":"Western Contra Costa County","group":"Northern California","project":"North America","project_id":1,"source":"macrostrat"}},{"type":"Feature","geometry":{"type":"Point","coordinates":[-120.574,37.438]},"properties":{"col_id":244,"name":"Merced River","group":"Northern California","project":"North America","project_id":1,"source":"macrostrat"}},{"type":"Feature","geometry":{"type":"Point","coordinates":[-120.431,37.704]},"properties":{"col_id":245,"name":"Tuolumne River","group":"Northern California","project":"North America","project_id":1,"source":"macrostrat"}},{"type":"Feature","geometry":{"type":"Point","coordinates":[-120.99,38.508]},"properties":{"col_id":246,"name":"Mokelumne River to Placerville Area","group":"Northern California","project":"North America","project_id":1,"source":"macrostrat"}},{"type":"Feature","geometry":{"type":"Point","coordinates":[-120.335,38.049]},"properties":{"col_id":247,"name":"Sonora Area","group":"Northern California","project":"North America","project_id":1,"source":"macrostrat"}},{"type":"Feature","geometry":{"type":"Point","coordinates":[-120.689,39.405]},"properties":{"col_id":248,"name":"Bowman Lake","group":"Northern California","project":"North America","project_id":1,"source":"macrostrat"}},{"type":"Feature","geometry":{"type":"Point","coordinates":[-120.904,40.078]},"properties":{"col_id":249,"name":"Taylorsville","group":"Northern California","project":"North America","project_id":1,"source":"macrostrat"}},{"type":"Feature","geometry":{"type":"Point","coordinates":[-120.467,40.065]},"properties":{"col_id":250,"name":"Taylorsville East","group":"Northern California","project":"North America","project_id":1,"source":"macrostrat"}},{"type":"Feature","geometry":{"type":"Point","coordinates":[-121.931,37.939]},"properties":{"col_id":251,"name":"Mount Diablo North Fork","group":"Northern California","project":"North America","project_id":1,"source":"macrostrat"}},{"type":"Feature","geometry":{"type":"Point","coordinates":[-121.848,37.789]},"properties":{"col_id":252,"name":"Mount Diablo South Flank","group":"Northern California","project":"North America","project_id":1,"source":"macrostrat"}},{"type":"Feature","geometry":{"type":"Point","coordinates":[-122.079,38.091]},"properties":{"col_id":253,"name":"Suisun Bay","group":"Northern California","project":"North America","project_id":1,"source":"macrostrat"}},{"type":"Feature","geometry":{"type":"Point","coordinates":[-121.81,38.11]},"properties":{"col_id":254,"name":"Montezuma","group":"Northern California","project":"North America","project_id":1,"source":"macrostrat"}},{"type":"Feature","geometry":{"type":"Point","coordinates":[-121.39,37.706]},"properties":{"col_id":255,"name":"Tracy","group":"Northern California","project":"North America","project_id":1,"source":"macrostrat"}},{"type":"Feature","geometry":{"type":"Point","coordinates":[-120.985,37.988]},"properties":{"col_id":256,"name":"San Joaquin East","group":"Northern California","project":"North America","project_id":1,"source":"macrostrat"}},{"type":"Feature","geometry":{"type":"Point","coordinates":[-121.498,38.408]},"properties":{"col_id":257,"name":"Clarksburg","group":"Northern California","project":"North America","project_id":1,"source":"macrostrat"}},{"type":"Feature","geometry":{"type":"Point","coordinates":[-122.283,39.591]},"properties":{"col_id":258,"name":"Ord Bend","group":"Northern California","project":"North America","project_id":1,"source":"macrostrat"}},{"type":"Feature","geometry":{"type":"Point","coordinates":[-122.48,40.26]},"properties":{"col_id":259,"name":"Northwest","group":"Northern California","project":"North America","project_id":1,"source":"macrostrat"}},{"type":"Feature","geometry":{"type":"Point","coordinates":[-121.964,38.532]},"properties":{"col_id":260,"name":"Putah Creek","group":"Northern California","project":"North America","project_id":1,"source":"macrostrat"}},{"type":"Feature","geometry":{"type":"Point","coordinates":[-122.859,43.25]},"properties":{"col_id":261,"name":"Roseburg Area","group":"Northwest","project":"North America","project_id":1,"source":"macrostrat"}},{"type":"Feature","geometry":{"type":"Point","coordinates":[-124.391,42.772]},"properties":{"col_id":262,"name":"Cape Blanco Area","group":"Northwest","project":"North America","project_id":1,"source":"macrostrat"}},{"type":"Feature","geometry":{"type":"Point","coordinates":[-124.201,43.428]},"properties":{"col_id":263,"name":"Coos Bay Area","group":"Northwest","project":"North America","project_id":1,"source":"macrostrat"}},{"type":"Feature","geometry":{"type":"Point","coordinates":[-124.078,43.818]},"properties":{"col_id":264,"name":"Reedsport (subsurface)","group":"Northwest","project":"North America","project_id":1,"source":"macrostrat"}},{"type":"Feature","geometry":{"type":"Point","coordinates":[-123.083,44.081]},"properties":{"col_id":265,"name":"Eugene Area","group":"Northwest","project":"North America","project_id":1,"source":"macrostrat"}},{"type":"Feature","geometry":{"type":"Point","coordinates":[-123.896,44.611]},"properties":{"col_id":266,"name":"Central Coastal Range","group":"Northwest","project":"North America","project_id":1,"source":"macrostrat"}},{"type":"Feature","geometry":{"type":"Point","coordinates":[-123.256,45.094]},"properties":{"col_id":267,"name":"Mcminnville Sheridan Area","group":"Northwest","project":"North America","project_id":1,"source":"macrostrat"}},{"type":"Feature","geometry":{"type":"Point","coordinates":[-122.579,45.243]},"properties":{"col_id":268,"name":"Oregon City, Molalla Area","group":"Northwest","project":"North America","project_id":1,"source":"macrostrat"}},{"type":"Feature","geometry":{"type":"Point","coordinates":[-123.868,46.094]},"properties":{"col_id":269,"name":"Astoria Area","group":"Northwest","project":"North America","project_id":1,"source":"macrostrat"}},{"type":"Feature","geometry":{"type":"Point","coordinates":[-123.162,45.933]},"properties":{"col_id":270,"name":"Columbia County Area","group":"Northwest","project":"North America","project_id":1,"source":"macrostrat"}},{"type":"Feature","geometry":{"type":"Point","coordinates":[-151.695,68.296]},"properties":{"col_id":271,"name":"Eastern Endicott Mountains Allochthon","group":"Northern Alaska","project":"North America","project_id":1,"source":"macrostrat"}},{"type":"Feature","geometry":{"type":"Point","coordinates":[-150.633,67.907]},"properties":{"col_id":272,"name":"Mount Doonerak","group":"Northern Alaska","project":"North America","project_id":1,"source":"macrostrat"}},{"type":"Feature","geometry":{"type":"Point","coordinates":[-159.922,67.389]},"properties":{"col_id":273,"name":"Hub Mountain","group":"Northern Alaska","project":"North America","project_id":1,"source":"macrostrat"}},{"type":"Feature","geometry":{"type":"Point","coordinates":[-150.095,67.048]},"properties":{"col_id":274,"name":"Southern Wiseman Quadrangle","group":"Northern Alaska","project":"North America","project_id":1,"source":"macrostrat"}},{"type":"Feature","geometry":{"type":"Point","coordinates":[-123.501,46.49]},"properties":{"col_id":275,"name":"South Flank Willapa Hills","group":"Northwest","project":"North America","project_id":1,"source":"macrostrat"}},{"type":"Feature","geometry":{"type":"Point","coordinates":[-123.693,46.991]},"properties":{"col_id":276,"name":"Grays Harbor Basin","group":"Northwest","project":"North America","project_id":1,"source":"macrostrat"}},{"type":"Feature","geometry":{"type":"Point","coordinates":[-122.876,46.658]},"properties":{"col_id":277,"name":"Centralia - Chehalis Area","group":"Northwest","project":"North America","project_id":1,"source":"macrostrat"}},{"type":"Feature","geometry":{"type":"Point","coordinates":[-124.226,47.46]},"properties":{"col_id":278,"name":"Western Olympic Peninsula","group":"Northwest","project":"North America","project_id":1,"source":"macrostrat"}},{"type":"Feature","geometry":{"type":"Point","coordinates":[-124.495,48.158]},"properties":{"col_id":279,"name":"Northwest Olympic Peninsula","group":"Northwest","project":"North America","project_id":1,"source":"macrostrat"}},{"type":"Feature","geometry":{"type":"Point","coordinates":[-123.034,48.025]},"properties":{"col_id":280,"name":"Northeast Olympic Peninsula","group":"Northwest","project":"North America","project_id":1,"source":"macrostrat"}},{"type":"Feature","geometry":{"type":"Point","coordinates":[-122.724,47.565]},"properties":{"col_id":281,"name":"Bremerton Area","group":"Northwest","project":"North America","project_id":1,"source":"macrostrat"}},{"type":"Feature","geometry":{"type":"Point","coordinates":[-121.158,47.695]},"properties":{"col_id":282,"name":"Seattle Area","group":"Northwest","project":"North America","project_id":1,"source":"macrostrat"}},{"type":"Feature","geometry":{"type":"Point","coordinates":[-121.953,47.071]},"properties":{"col_id":283,"name":"Carbon River Area","group":"Northwest","project":"North America","project_id":1,"source":"macrostrat"}},{"type":"Feature","geometry":{"type":"Point","coordinates":[-122.32,48.723]},"properties":{"col_id":284,"name":"Bellingham Area","group":"Northwest","project":"North America","project_id":1,"source":"macrostrat"}},{"type":"Feature","geometry":{"type":"Point","coordinates":[-119.951,46.568]},"properties":{"col_id":285,"name":"Pasco - Yakima - Ellensburg Area, Washington","group":"Northwest","project":"North America","project_id":1,"source":"macrostrat"}},{"type":"Feature","geometry":{"type":"Point","coordinates":[-120.864,45.634]},"properties":{"col_id":286,"name":"Columbia River - the Dalles Area, Oregon-washington","group":"Northwest","project":"North America","project_id":1,"source":"macrostrat"}},{"type":"Feature","geometry":{"type":"Point","coordinates":[-120.942,44.334]},"properties":{"col_id":287,"name":"Bend - Madras - Ochoco Mountains, Oregon","group":"Northwest","project":"North America","project_id":1,"source":"macrostrat"}},{"type":"Feature","geometry":{"type":"Point","coordinates":[-154.909,67.707]},"properties":{"col_id":288,"name":"Survey Pass Composite","group":"Northern Alaska","project":"North America","project_id":1,"source":"macrostrat"}},{"type":"Feature","geometry":{"type":"Point","coordinates":[-120.91,42.788]},"properties":{"col_id":289,"name":"Lakeview - Fort Rock - Klamath Falls, Oregon","group":"Northwest","project":"North America","project_id":1,"source":"macrostrat"}},{"type":"Feature","geometry":{"type":"Point","coordinates":[-119.248,44.252]},"properties":{"col_id":290,"name":"John Day - Suplee, Central Oregon","group":"Northwest","project":"North America","project_id":1,"source":"macrostrat"}},{"type":"Feature","geometry":{"type":"Point","coordinates":[-118.883,43.051]},"properties":{"col_id":291,"name":"Harney Basin to Steens Mountains, South-Central Oregon","group":"Northwest","project":"North America","project_id":1,"source":"macrostrat"}},{"type":"Feature","geometry":{"type":"Point","coordinates":[-117.199,46.556]},"properties":{"col_id":292,"name":"Pullman, Wa. to Snake River Gorge, Wa. Or Id.","group":"Northwest","project":"North America","project_id":1,"source":"macrostrat"}},{"type":"Feature","geometry":{"type":"Point","coordinates":[-117.394,44.995]},"properties":{"col_id":293,"name":"Baker County and Wallowa Mountains, Oregon","group":"Northwest","project":"North America","project_id":1,"source":"macrostrat"}},{"type":"Feature","geometry":{"type":"Point","coordinates":[-117.498,43.709]},"properties":{"col_id":294,"name":"Juntura - Vale - Owyhee Dam, Oregon","group":"Northwest","project":"North America","project_id":1,"source":"macrostrat"}},{"type":"Feature","geometry":{"type":"Point","coordinates":[-115.92,43.56]},"properties":{"col_id":295,"name":"Boise Basin, Idaho","group":"Northwest","project":"North America","project_id":1,"source":"macrostrat"}},{"type":"Feature","geometry":{"type":"Point","coordinates":[-78.678,39.676]},"properties":{"col_id":296,"name":"Allegany County, Maryland","group":"Northern Appalachians","project":"North America","project_id":1,"source":"macrostrat"}},{"type":"Feature","geometry":{"type":"Point","coordinates":[-77.995,39.696]},"properties":{"col_id":297,"name":"Washington County, Maryland","group":"Northern Appalachians","project":"North America","project_id":1,"source":"macrostrat"}},{"type":"Feature","geometry":{"type":"Point","coordinates":[-82.741,40.608]},"properties":{"col_id":298,"name":"North-central Ohio","group":"Northern Appalachians","project":"North America","project_id":1,"source":"macrostrat"}},{"type":"Feature","geometry":{"type":"Point","coordinates":[-81.293,40.577]},"properties":{"col_id":299,"name":"East-central Ohio","group":"Northern Appalachians","project":"North America","project_id":1,"source":"macrostrat"}},{"type":"Feature","geometry":{"type":"Point","coordinates":[-79.563,40.528]},"properties":{"col_id":300,"name":"Southwestern Pennsylvania","group":"Northern Appalachians","project":"North America","project_id":1,"source":"macrostrat"}},{"type":"Feature","geometry":{"type":"Point","coordinates":[-77.89,40.291]},"properties":{"col_id":301,"name":"South-central Pennsylvania","group":"Northern Appalachians","project":"North America","project_id":1,"source":"macrostrat"}},{"type":"Feature","geometry":{"type":"Point","coordinates":[-76.97,40.211]},"properties":{"col_id":302,"name":"Southeastern Pennsylvania","group":"Northern Appalachians","project":"North America","project_id":1,"source":"macrostrat"}},{"type":"Feature","geometry":{"type":"Point","coordinates":[-81.633,41.306]},"properties":{"col_id":303,"name":"Northeastern Ohio","group":"Northern Appalachians","project":"North America","project_id":1,"source":"macrostrat"}},{"type":"Feature","geometry":{"type":"Point","coordinates":[-79.291,41.673]},"properties":{"col_id":304,"name":"Northwest Pennsylvania","group":"Northern Appalachians","project":"North America","project_id":1,"source":"macrostrat"}},{"type":"Feature","geometry":{"type":"Point","coordinates":[-77.32,41.643]},"properties":{"col_id":305,"name":"North-central Pennsylvania","group":"Northern Appalachians","project":"North America","project_id":1,"source":"macrostrat"}},{"type":"Feature","geometry":{"type":"Point","coordinates":[-75.2,41.543]},"properties":{"col_id":306,"name":"Northeast Pennsylvania","group":"Northern Appalachians","project":"North America","project_id":1,"source":"macrostrat"}},{"type":"Feature","geometry":{"type":"Point","coordinates":[-75.81,40.961]},"properties":{"col_id":307,"name":"Eastern Pennsylvania","group":"Northern Appalachians","project":"North America","project_id":1,"source":"macrostrat"}},{"type":"Feature","geometry":{"type":"Point","coordinates":[-74.875,40.686]},"properties":{"col_id":308,"name":"Northwestern New Jersey","group":"Northern Appalachians","project":"North America","project_id":1,"source":"macrostrat"}},{"type":"Feature","geometry":{"type":"Point","coordinates":[-74.537,40.993]},"properties":{"col_id":309,"name":"Green Pond Mountain Region, New Jersey","group":"Northern Appalachians","project":"North America","project_id":1,"source":"macrostrat"}},{"type":"Feature","geometry":{"type":"Point","coordinates":[-78.623,42.583]},"properties":{"col_id":310,"name":"Western New York","group":"Northern Appalachians","project":"North America","project_id":1,"source":"macrostrat"}},{"type":"Feature","geometry":{"type":"Point","coordinates":[-77.033,42.96]},"properties":{"col_id":311,"name":"West-central New York","group":"Northern Appalachians","project":"North America","project_id":1,"source":"macrostrat"}},{"type":"Feature","geometry":{"type":"Point","coordinates":[-75.778,43.116]},"properties":{"col_id":312,"name":"East-central New York","group":"Northern Appalachians","project":"North America","project_id":1,"source":"macrostrat"}},{"type":"Feature","geometry":{"type":"Point","coordinates":[-74.3,42.561]},"properties":{"col_id":313,"name":"Eastern New York","group":"Northern Appalachians","project":"North America","project_id":1,"source":"macrostrat"}},{"type":"Feature","geometry":{"type":"Point","coordinates":[-74.159,41.824]},"properties":{"col_id":314,"name":"Southeastern New York","group":"Northern Appalachians","project":"North America","project_id":1,"source":"macrostrat"}},{"type":"Feature","geometry":{"type":"Point","coordinates":[-74.3,43.913]},"properties":{"col_id":315,"name":"Adirondack Mountains and Champlain Valley","group":"Northeast United States","project":"North America","project_id":1,"source":"macrostrat"}},{"type":"Feature","geometry":{"type":"Point","coordinates":[-158.131,64.971]},"properties":{"col_id":316,"name":"Yukon-Koyukuk Basin","group":"Southern Alaska","project":"North America","project_id":1,"source":"macrostrat"}},{"type":"Feature","geometry":{"type":"Point","coordinates":[-153.326,64.914]},"properties":{"col_id":317,"name":"Northern Kuskokwim Mountains","group":"Southern Alaska","project":"North America","project_id":1,"source":"macrostrat"}},{"type":"Feature","geometry":{"type":"Point","coordinates":[-154.033,62.24]},"properties":{"col_id":318,"name":"Southwest Alaska Range, Farewell Area","group":"Southern Alaska","project":"North America","project_id":1,"source":"macrostrat"}},{"type":"Feature","geometry":{"type":"Point","coordinates":[-149.97,64.533]},"properties":{"col_id":319,"name":"North Central Alaska, Range Healy Area","group":"Southern Alaska","project":"North America","project_id":1,"source":"macrostrat"}},{"type":"Feature","geometry":{"type":"Point","coordinates":[-147.925,64.323]},"properties":{"col_id":320,"name":"Northeast Alaska Range, North of Denali Fault Mount Hayes Quadrangle","group":"Southern Alaska","project":"North America","project_id":1,"source":"macrostrat"}},{"type":"Feature","geometry":{"type":"Point","coordinates":[-151.935,62.986]},"properties":{"col_id":321,"name":"West Central Alaska Range, McKinley Area","group":"Southern Alaska","project":"North America","project_id":1,"source":"macrostrat"}},{"type":"Feature","geometry":{"type":"Point","coordinates":[-161.016,59.571]},"properties":{"col_id":322,"name":"Kanektok River","group":"Southern Alaska","project":"North America","project_id":1,"source":"macrostrat"}},{"type":"Feature","geometry":{"type":"Point","coordinates":[-159.341,60.23]},"properties":{"col_id":323,"name":"Tikchik Lakes","group":"Southern Alaska","project":"North America","project_id":1,"source":"macrostrat"}},{"type":"Feature","geometry":{"type":"Point","coordinates":[-114.353,44.15]},"properties":{"col_id":324,"name":"Boulder Mountains Wood River and Central Pioneer Mountains, Central Idaho","group":"Northern Rockies","project":"North America","project_id":1,"source":"macrostrat"}},{"type":"Feature","geometry":{"type":"Point","coordinates":[-113.48,44.375]},"properties":{"col_id":325,"name":"White Knob Mountains, Lost River and Lemhi Range, Central Idaho","group":"Northern Rockies","project":"North America","project_id":1,"source":"macrostrat"}},{"type":"Feature","geometry":{"type":"Point","coordinates":[-116.541,48.608]},"properties":{"col_id":326,"name":"Pend Oreille Lake Boundary County, Idaho Pandandle","group":"Northern Rockies","project":"North America","project_id":1,"source":"macrostrat"}},{"type":"Feature","geometry":{"type":"Point","coordinates":[-116.35,47.349]},"properties":{"col_id":327,"name":"St. Joe - St. Maries River, Idaho Pandandle","group":"Northern Rockies","project":"North America","project_id":1,"source":"macrostrat"}},{"type":"Feature","geometry":{"type":"Point","coordinates":[-115.392,47.931]},"properties":{"col_id":328,"name":"Libby - Thompson Falls Area, Northwestern Montana","group":"Northern Rockies","project":"North America","project_id":1,"source":"macrostrat"}},{"type":"Feature","geometry":{"type":"Point","coordinates":[-113.834,48.544]},"properties":{"col_id":329,"name":"Glacier National Park Area, Northwestern Montana","group":"Northern Rockies","project":"North America","project_id":1,"source":"macrostrat"}},{"type":"Feature","geometry":{"type":"Point","coordinates":[-112.728,47.316]},"properties":{"col_id":330,"name":"Southern Disturbed Belt, Northwestern Montana","group":"Northern Rockies","project":"North America","project_id":1,"source":"macrostrat"}},{"type":"Feature","geometry":{"type":"Point","coordinates":[-112.899,46.435]},"properties":{"col_id":331,"name":"Missoula (pe, Te, Q Only), Drummond - Helena Area, Central Western Montana","group":"Northern Rockies","project":"North America","project_id":1,"source":"macrostrat"}},{"type":"Feature","geometry":{"type":"Point","coordinates":[-112.118,45.435]},"properties":{"col_id":332,"name":"Butte - Bozeman and South, Southwestern Montana","group":"Northern Rockies","project":"North America","project_id":1,"source":"macrostrat"}},{"type":"Feature","geometry":{"type":"Point","coordinates":[-112.762,48.181]},"properties":{"col_id":333,"name":"West Flank Sweetgrass Arch and Disturbed Belt, Northwest Montana","group":"Northern Rockies","project":"North America","project_id":1,"source":"macrostrat"}},{"type":"Feature","geometry":{"type":"Point","coordinates":[-110.888,48.432]},"properties":{"col_id":334,"name":"East Flank Sweetgrass Arch and Disturbed Belt, Northwest Montana","group":"Northern Rockies","project":"North America","project_id":1,"source":"macrostrat"}},{"type":"Feature","geometry":{"type":"Point","coordinates":[-109.553,46.516]},"properties":{"col_id":335,"name":"Central Montana Uplift","group":"Northern Rockies","project":"North America","project_id":1,"source":"macrostrat"}},{"type":"Feature","geometry":{"type":"Point","coordinates":[-108.616,48.375]},"properties":{"col_id":336,"name":"Blaine-valley Northwest Basin","group":"Northern Rockies","project":"North America","project_id":1,"source":"macrostrat"}},{"type":"Feature","geometry":{"type":"Point","coordinates":[-106.961,47.266]},"properties":{"col_id":337,"name":"Garfield County North Basin","group":"Northern Rockies","project":"North America","project_id":1,"source":"macrostrat"}},{"type":"Feature","geometry":{"type":"Point","coordinates":[-104.933,48.583]},"properties":{"col_id":338,"name":"Roosevelt County West Basin","group":"Northern Rockies","project":"North America","project_id":1,"source":"macrostrat"}},{"type":"Feature","geometry":{"type":"Point","coordinates":[-105.365,46.209]},"properties":{"col_id":339,"name":"Cedar Creek Anticline Southwest Basin","group":"Northern Rockies","project":"North America","project_id":1,"source":"macrostrat"}},{"type":"Feature","geometry":{"type":"Point","coordinates":[-103.421,47.279]},"properties":{"col_id":340,"name":"Billings County Central Basin","group":"Northern Rockies","project":"North America","project_id":1,"source":"macrostrat"}},{"type":"Feature","geometry":{"type":"Point","coordinates":[-102.95,48.383]},"properties":{"col_id":341,"name":"Williams County Nesson Anticline","group":"Northern Rockies","project":"North America","project_id":1,"source":"macrostrat"}},{"type":"Feature","geometry":{"type":"Point","coordinates":[-100.575,47.246]},"properties":{"col_id":342,"name":"Burleigh County East Basin","group":"Northern Rockies","project":"North America","project_id":1,"source":"macrostrat"}},{"type":"Feature","geometry":{"type":"Point","coordinates":[-100.8,48.849]},"properties":{"col_id":343,"name":"Bottineau County Northeast Basin","group":"Northern Rockies","project":"North America","project_id":1,"source":"macrostrat"}},{"type":"Feature","geometry":{"type":"Point","coordinates":[-98.001,48.566]},"properties":{"col_id":344,"name":"Cavalier County Northeast Edge","group":"Northern Rockies","project":"North America","project_id":1,"source":"macrostrat"}},{"type":"Feature","geometry":{"type":"Point","coordinates":[-98.056,46.741]},"properties":{"col_id":345,"name":"Dickey County Southeast Edge","group":"Northern Rockies","project":"North America","project_id":1,"source":"macrostrat"}},{"type":"Feature","geometry":{"type":"Point","coordinates":[-102.95,46.266]},"properties":{"col_id":346,"name":"Adams and Harding Counties, Southwest Basin","group":"Northern Rockies","project":"North America","project_id":1,"source":"macrostrat"}},{"type":"Feature","geometry":{"type":"Point","coordinates":[-102.878,44.95]},"properties":{"col_id":347,"name":"Pennington County Northern Black Hills","group":"Northern Rockies","project":"North America","project_id":1,"source":"macrostrat"}},{"type":"Feature","geometry":{"type":"Point","coordinates":[-100.34,45.4]},"properties":{"col_id":348,"name":"Dewey County East Basin (south)","group":"Northern Rockies","project":"North America","project_id":1,"source":"macrostrat"}},{"type":"Feature","geometry":{"type":"Point","coordinates":[-86.041,33.233]},"properties":{"col_id":349,"name":"Talladega Slate Belt, Alabama","group":"Piedmont-Blue Ridge","project":"North America","project_id":1,"source":"macrostrat"}},{"type":"Feature","geometry":{"type":"Point","coordinates":[-85.083,33.783]},"properties":{"col_id":350,"name":"Northern Georgia Piedmont","group":"Piedmont-Blue Ridge","project":"North America","project_id":1,"source":"macrostrat"}},{"type":"Feature","geometry":{"type":"Point","coordinates":[-84.391,34.771]},"properties":{"col_id":351,"name":"Georgia Blue Ridge","group":"Piedmont-Blue Ridge","project":"North America","project_id":1,"source":"macrostrat"}},{"type":"Feature","geometry":{"type":"Point","coordinates":[-83.532,35.449]},"properties":{"col_id":352,"name":"Great Smoky Mountains South of and Above Greenbriar Fault","group":"Piedmont-Blue Ridge","project":"North America","project_id":1,"source":"macrostrat"}},{"type":"Feature","geometry":{"type":"Point","coordinates":[-83.118,35.735]},"properties":{"col_id":353,"name":"Great Smoky Mountains, North of and Below Greenbriar Fault","group":"Piedmont-Blue Ridge","project":"North America","project_id":1,"source":"macrostrat"}},{"type":"Feature","geometry":{"type":"Point","coordinates":[-81.183,36.166]},"properties":{"col_id":354,"name":"Grandfather Mountain Window, North Carolina","group":"Piedmont-Blue Ridge","project":"North America","project_id":1,"source":"macrostrat"}},{"type":"Feature","geometry":{"type":"Point","coordinates":[-81.433,35.941]},"properties":{"col_id":355,"name":"Blue Ridge Thrust Sheet North and West of Grandfather Mountain Window, Nort","group":"Piedmont-Blue Ridge","project":"North America","project_id":1,"source":"macrostrat"}},{"type":"Feature","geometry":{"type":"Point","coordinates":[-77.866,38.911]},"properties":{"col_id":356,"name":"Blue Ridge Anticlinorium, Virginia-maryland","group":"Piedmont-Blue Ridge","project":"North America","project_id":1,"source":"macrostrat"}},{"type":"Feature","geometry":{"type":"Point","coordinates":[-77.336,39.476]},"properties":{"col_id":357,"name":"Western Maryland Piedmont and Frederick Valley","group":"Piedmont-Blue Ridge","project":"North America","project_id":1,"source":"macrostrat"}},{"type":"Feature","geometry":{"type":"Point","coordinates":[-75.953,40.041]},"properties":{"col_id":358,"name":"York - Lancaster Valley and Mine Ridge Area, Pennsylvania","group":"Piedmont-Blue Ridge","project":"North America","project_id":1,"source":"macrostrat"}},{"type":"Feature","geometry":{"type":"Point","coordinates":[-75.111,40.431]},"properties":{"col_id":359,"name":"Delaware Valley - Pennsylvania - New Jersey","group":"Piedmont-Blue Ridge","project":"North America","project_id":1,"source":"macrostrat"}},{"type":"Feature","geometry":{"type":"Point","coordinates":[-84.823,32.961]},"properties":{"col_id":360,"name":"Pine Mountain Window, Alabama - Georgia","group":"Piedmont-Blue Ridge","project":"North America","project_id":1,"source":"macrostrat"}},{"type":"Feature","geometry":{"type":"Point","coordinates":[-85.428,32.862]},"properties":{"col_id":361,"name":"Southern Alabama Piedmont","group":"Piedmont-Blue Ridge","project":"North America","project_id":1,"source":"macrostrat"}},{"type":"Feature","geometry":{"type":"Point","coordinates":[-84.695,33.496]},"properties":{"col_id":362,"name":"Middle, Georgia Piedmont","group":"Piedmont-Blue Ridge","project":"North America","project_id":1,"source":"macrostrat"}},{"type":"Feature","geometry":{"type":"Point","coordinates":[-84.38,33.847]},"properties":{"col_id":363,"name":"Atlanta Area, Georgia","group":"Piedmont-Blue Ridge","project":"North America","project_id":1,"source":"macrostrat"}},{"type":"Feature","geometry":{"type":"Point","coordinates":[-82.465,34.192]},"properties":{"col_id":364,"name":"Central and Western South Carolina Slate Belt","group":"Piedmont-Blue Ridge","project":"North America","project_id":1,"source":"macrostrat"}},{"type":"Feature","geometry":{"type":"Point","coordinates":[-79.672,35.49]},"properties":{"col_id":365,"name":"North Carolina Slate Belt","group":"Piedmont-Blue Ridge","project":"North America","project_id":1,"source":"macrostrat"}},{"type":"Feature","geometry":{"type":"Point","coordinates":[-78.811,37.716]},"properties":{"col_id":366,"name":"Piedmont and Eastern Blue Ridge, Central and Southern Virginia","group":"Piedmont-Blue Ridge","project":"North America","project_id":1,"source":"macrostrat"}},{"type":"Feature","geometry":{"type":"Point","coordinates":[-77.664,38.577]},"properties":{"col_id":367,"name":"Northern and Central Virginia Piedmont","group":"Piedmont-Blue Ridge","project":"North America","project_id":1,"source":"macrostrat"}},{"type":"Feature","geometry":{"type":"Point","coordinates":[-76.736,39.483]},"properties":{"col_id":368,"name":"Eastern Maryland Piedmont","group":"Piedmont-Blue Ridge","project":"North America","project_id":1,"source":"macrostrat"}},{"type":"Feature","geometry":{"type":"Point","coordinates":[-73.23,44.07]},"properties":{"col_id":369,"name":"Western Vermont","group":"Northeast United States","project":"North America","project_id":1,"source":"macrostrat"}},{"type":"Feature","geometry":{"type":"Point","coordinates":[-73.533,42.826]},"properties":{"col_id":370,"name":"Taconic Mountains Autochthonous Strata","group":"Northeast United States","project":"North America","project_id":1,"source":"macrostrat"}},{"type":"Feature","geometry":{"type":"Point","coordinates":[-73.791,41.383]},"properties":{"col_id":371,"name":"Lower Hudson Valley","group":"Northeast United States","project":"North America","project_id":1,"source":"macrostrat"}},{"type":"Feature","geometry":{"type":"Point","coordinates":[-73.22,42.476]},"properties":{"col_id":372,"name":"Western Massachusetts West Side - Berkshire Anticlinorium","group":"Northeast United States","project":"North America","project_id":1,"source":"macrostrat"}},{"type":"Feature","geometry":{"type":"Point","coordinates":[-73.1,44.745]},"properties":{"col_id":373,"name":"Northwestern Vermont","group":"Northeast United States","project":"North America","project_id":1,"source":"macrostrat"}},{"type":"Feature","geometry":{"type":"Point","coordinates":[-73.091,41.366]},"properties":{"col_id":374,"name":"Southwestern Connecticut","group":"Northeast United States","project":"North America","project_id":1,"source":"macrostrat"}},{"type":"Feature","geometry":{"type":"Point","coordinates":[-72.571,41.781]},"properties":{"col_id":375,"name":"Central Connecticut","group":"Northeast United States","project":"North America","project_id":1,"source":"macrostrat"}},{"type":"Feature","geometry":{"type":"Point","coordinates":[-72.806,42.528]},"properties":{"col_id":376,"name":"West Limb - Connecticut Valley Synclinorium West Central Massachusetts","group":"Northeast United States","project":"North America","project_id":1,"source":"macrostrat"}},{"type":"Feature","geometry":{"type":"Point","coordinates":[-72.63,44.295]},"properties":{"col_id":377,"name":"Central Vermont","group":"Northeast United States","project":"North America","project_id":1,"source":"macrostrat"}},{"type":"Feature","geometry":{"type":"Point","coordinates":[-71.206,44.86]},"properties":{"col_id":378,"name":"Northwestern New Hampshire","group":"Northeast United States","project":"North America","project_id":1,"source":"macrostrat"}},{"type":"Feature","geometry":{"type":"Point","coordinates":[-72.158,42.423]},"properties":{"col_id":379,"name":"Bronson Hill Anticlinorium, Massachusetts","group":"Northeast United States","project":"North America","project_id":1,"source":"macrostrat"}},{"type":"Feature","geometry":{"type":"Point","coordinates":[-71.848,44.078]},"properties":{"col_id":380,"name":"Western New Hampshire","group":"Northeast United States","project":"North America","project_id":1,"source":"macrostrat"}},{"type":"Feature","geometry":{"type":"Point","coordinates":[-70.553,45.083]},"properties":{"col_id":381,"name":"West - Central Maine","group":"Northeast United States","project":"North America","project_id":1,"source":"macrostrat"}},{"type":"Feature","geometry":{"type":"Point","coordinates":[-69.291,46.275]},"properties":{"col_id":382,"name":"North - Central Maine","group":"Northeast United States","project":"North America","project_id":1,"source":"macrostrat"}},{"type":"Feature","geometry":{"type":"Point","coordinates":[-68.296,46.641]},"properties":{"col_id":383,"name":"Northeastern Maine","group":"Northeast United States","project":"North America","project_id":1,"source":"macrostrat"}},{"type":"Feature","geometry":{"type":"Point","coordinates":[-71.875,43.176]},"properties":{"col_id":384,"name":"South - Central New Hampshire","group":"Northeast United States","project":"North America","project_id":1,"source":"macrostrat"}},{"type":"Feature","geometry":{"type":"Point","coordinates":[-70.576,43.425]},"properties":{"col_id":385,"name":"Southern Maine","group":"Northeast United States","project":"North America","project_id":1,"source":"macrostrat"}},{"type":"Feature","geometry":{"type":"Point","coordinates":[-68.611,44.545]},"properties":{"col_id":386,"name":"South - Central Maine","group":"Northeast United States","project":"North America","project_id":1,"source":"macrostrat"}},{"type":"Feature","geometry":{"type":"Point","coordinates":[-72.086,41.576]},"properties":{"col_id":387,"name":"Southeastern Connecticut","group":"Northeast United States","project":"North America","project_id":1,"source":"macrostrat"}},{"type":"Feature","geometry":{"type":"Point","coordinates":[-71.586,42.333]},"properties":{"col_id":388,"name":"Merrimack Synclinorium - Milford Anticline East Central Massachusetts","group":"Northeast United States","project":"North America","project_id":1,"source":"macrostrat"}},{"type":"Feature","geometry":{"type":"Point","coordinates":[-67.378,44.903]},"properties":{"col_id":389,"name":"Eastern Maine","group":"Northeast United States","project":"North America","project_id":1,"source":"macrostrat"}},{"type":"Feature","geometry":{"type":"Point","coordinates":[-71.58,41.541]},"properties":{"col_id":390,"name":"Rhode Island","group":"Northeast United States","project":"North America","project_id":1,"source":"macrostrat"}},{"type":"Feature","geometry":{"type":"Point","coordinates":[-71.016,42.138]},"properties":{"col_id":391,"name":"Boston Area","group":"Northeast United States","project":"North America","project_id":1,"source":"macrostrat"}},{"type":"Feature","geometry":{"type":"Point","coordinates":[-69.021,45.261]},"properties":{"col_id":392,"name":"East - Central Maine","group":"Northeast United States","project":"North America","project_id":1,"source":"macrostrat"}},{"type":"Feature","geometry":{"type":"Point","coordinates":[-163.466,65.468]},"properties":{"col_id":393,"name":"Seward Peninsula","group":"Northern Alaska","project":"North America","project_id":1,"source":"macrostrat"}},{"type":"Feature","geometry":{"type":"Point","coordinates":[-143.374,67.085]},"properties":{"col_id":394,"name":"Porcupine River","group":"Northern Alaska","project":"North America","project_id":1,"source":"macrostrat"}},{"type":"Feature","geometry":{"type":"Point","coordinates":[-144.125,65.915]},"properties":{"col_id":395,"name":"West Charley River","group":"Northern Alaska","project":"North America","project_id":1,"source":"macrostrat"}},{"type":"Feature","geometry":{"type":"Point","coordinates":[-141.526,66.054]},"properties":{"col_id":396,"name":"East Charley River","group":"Northern Alaska","project":"North America","project_id":1,"source":"macrostrat"}},{"type":"Feature","geometry":{"type":"Point","coordinates":[-147.668,65.882]},"properties":{"col_id":397,"name":"Yukon River Ot White Mountain","group":"Northern Alaska","project":"North America","project_id":1,"source":"macrostrat"}},{"type":"Feature","geometry":{"type":"Point","coordinates":[-146.083,65.001]},"properties":{"col_id":398,"name":"White Mountain to Chena River","group":"Northern Alaska","project":"North America","project_id":1,"source":"macrostrat"}},{"type":"Feature","geometry":{"type":"Point","coordinates":[-144.371,64.666]},"properties":{"col_id":399,"name":"Chena River to Shaw Creek Fault","group":"Northern Alaska","project":"North America","project_id":1,"source":"macrostrat"}},{"type":"Feature","geometry":{"type":"Point","coordinates":[-141.959,63.645]},"properties":{"col_id":400,"name":"Shaw Creek Fault to Yukon Border","group":"Northern Alaska","project":"North America","project_id":1,"source":"macrostrat"}},{"type":"Feature","geometry":{"type":"Point","coordinates":[-159.708,59.066]},"properties":{"col_id":401,"name":"Togiak","group":"Southern Alaska","project":"North America","project_id":1,"source":"macrostrat"}},{"type":"Feature","geometry":{"type":"Point","coordinates":[-161.187,55.547]},"properties":{"col_id":402,"name":"Alaska Peninsula, False Pass to Chignik","group":"Southern Alaska","project":"North America","project_id":1,"source":"macrostrat"}},{"type":"Feature","geometry":{"type":"Point","coordinates":[-157.786,56.911]},"properties":{"col_id":403,"name":"Alaska Peninsula, Chignik to Wide Bay","group":"Southern Alaska","project":"North America","project_id":1,"source":"macrostrat"}},{"type":"Feature","geometry":{"type":"Point","coordinates":[-154.716,58.608]},"properties":{"col_id":404,"name":"Alaska Peninsula, Wide Bay to Cape Douglas","group":"Southern Alaska","project":"North America","project_id":1,"source":"macrostrat"}},{"type":"Feature","geometry":{"type":"Point","coordinates":[-152.508,60.0]},"properties":{"col_id":405,"name":"Cook Inlet","group":"Southern Alaska","project":"North America","project_id":1,"source":"macrostrat"}},{"type":"Feature","geometry":{"type":"Point","coordinates":[-148.932,62.327]},"properties":{"col_id":406,"name":"Talkeetna Mountains","group":"Southern Alaska","project":"North America","project_id":1,"source":"macrostrat"}},{"type":"Feature","geometry":{"type":"Point","coordinates":[-145.468,62.353]},"properties":{"col_id":407,"name":"Copper River","group":"Southern Alaska","project":"North America","project_id":1,"source":"macrostrat"}},{"type":"Feature","geometry":{"type":"Point","coordinates":[-147.925,63.175]},"properties":{"col_id":408,"name":"Central Alaska Range South of Denali Fault, Wrangallia Terrane","group":"Southern Alaska","project":"North America","project_id":1,"source":"macrostrat"}},{"type":"Feature","geometry":{"type":"Point","coordinates":[-145.831,63.34]},"properties":{"col_id":409,"name":"Central Alaska Range South of Denali Fault, Maclaren Terrane","group":"Southern Alaska","project":"North America","project_id":1,"source":"macrostrat"}},{"type":"Feature","geometry":{"type":"Point","coordinates":[-142.418,62.392]},"properties":{"col_id":410,"name":"Northern Wrangell Mountains, Nebesna Quadrangle","group":"Southern Alaska","project":"North America","project_id":1,"source":"macrostrat"}},{"type":"Feature","geometry":{"type":"Point","coordinates":[-141.986,61.217]},"properties":{"col_id":411,"name":"Southern Wrangell Mountains, Mccarthy Quadrangle","group":"Southern Alaska","project":"North America","project_id":1,"source":"macrostrat"}},{"type":"Feature","geometry":{"type":"Point","coordinates":[-146.914,61.743]},"properties":{"col_id":412,"name":"Chugach Mountains, North of Border Ranges Fault","group":"Southern Alaska","project":"North America","project_id":1,"source":"macrostrat"}},{"type":"Feature","geometry":{"type":"Point","coordinates":[-148.723,60.958]},"properties":{"col_id":413,"name":"Chugach Mountains South of Border Ranges Fault","group":"Southern Alaska","project":"North America","project_id":1,"source":"macrostrat"}},{"type":"Feature","geometry":{"type":"Point","coordinates":[-153.397,57.559]},"properties":{"col_id":414,"name":"Kodiak Island","group":"Southern Alaska","project":"North America","project_id":1,"source":"macrostrat"}},{"type":"Feature","geometry":{"type":"Point","coordinates":[-147.196,60.058]},"properties":{"col_id":415,"name":"Prince William Sound and Middleton Island","group":"Southern Alaska","project":"North America","project_id":1,"source":"macrostrat"}},{"type":"Feature","geometry":{"type":"Point","coordinates":[-144.178,60.35]},"properties":{"col_id":416,"name":"Katalla District","group":"Southern Alaska","project":"North America","project_id":1,"source":"macrostrat"}},{"type":"Feature","geometry":{"type":"Point","coordinates":[-144.449,59.9]},"properties":{"col_id":417,"name":"Kayak Island","group":"Southern Alaska","project":"North America","project_id":1,"source":"macrostrat"}},{"type":"Feature","geometry":{"type":"Point","coordinates":[-142.292,60.221]},"properties":{"col_id":418,"name":"Yakataga District","group":"Southern Alaska","project":"North America","project_id":1,"source":"macrostrat"}},{"type":"Feature","geometry":{"type":"Point","coordinates":[-140.533,59.833]},"properties":{"col_id":419,"name":"Malaspina District","group":"Southern Alaska","project":"North America","project_id":1,"source":"macrostrat"}},{"type":"Feature","geometry":{"type":"Point","coordinates":[-139.021,59.443]},"properties":{"col_id":420,"name":"Yakutat District","group":"Southern Alaska","project":"North America","project_id":1,"source":"macrostrat"}},{"type":"Feature","geometry":{"type":"Point","coordinates":[-137.141,58.653]},"properties":{"col_id":421,"name":"Lituya District","group":"Southern Alaska","project":"North America","project_id":1,"source":"macrostrat"}},{"type":"Feature","geometry":{"type":"Point","coordinates":[-135.641,59.325]},"properties":{"col_id":422,"name":"Glacier Bay - Chilkat Ridge, Southeast Alaska","group":"Southern Alaska","project":"North America","project_id":1,"source":"macrostrat"}},{"type":"Feature","geometry":{"type":"Point","coordinates":[-135.303,58.622]},"properties":{"col_id":423,"name":"Northeastern Chilkat Range, Southeast Alaska","group":"Southern Alaska","project":"North America","project_id":1,"source":"macrostrat"}},{"type":"Feature","geometry":{"type":"Point","coordinates":[-133.806,56.738]},"properties":{"col_id":424,"name":"Kuiu - Kupreanof Island, Southeast Alaska","group":"Southern Alaska","project":"North America","project_id":1,"source":"macrostrat"}},{"type":"Feature","geometry":{"type":"Point","coordinates":[-133.265,55.683]},"properties":{"col_id":425,"name":"West-central Prince of Wales Island Craig Area, Southeast Alaska","group":"Southern Alaska","project":"North America","project_id":1,"source":"macrostrat"}},{"type":"Feature","geometry":{"type":"Point","coordinates":[-132.335,55.094]},